[
  {
    "name": "UFC Fight Night: Allen vs. Craig",
    "date": "2023-11-18",
    "location": {
      "city": "Las Vegas",
      "state": "Nevada",
      "country": "USA"
    }
  },
  {
    "name": "UFC 295: Prochazka vs. Pereira",
    "date": "2023-11-11",
    "location": {
      "city": "New York City",
      "state": "New York",
      "country": "USA"
    }
  },
  {
    "name": "UFC Fight Night: Almeida vs. Lewis",
    "date": "2023-11-04",
    "location": {
      "city": "Sao Paulo",
      "state": "Sao Paulo",
      "country": "Brazil"
    }
  },
  {
    "name": "UFC 294: Makhachev vs. Volkanovski 2",
    "date": "2023-10-21",
    "location": {
      "city": "Abu Dhabi",
      "state": "Abu Dhabi",
      "country": "United Arab Emirates"
    }
  },
  {
    "name": "UFC Fight Night: Yusuff vs. Barboza",
    "date": "2023-10-14",
    "location": {
      "city": "Las Vegas",
      "state": "Nevada",
      "country": "USA"
    }
  },
  {
    "name": "UFC Fight Night: Dawson vs. Green",
    "date": "2023-10-07",
    "location": {
      "city": "Las Vegas",
      "state": "Nevada",
      "country": "USA"
    }
  },
  {
    "name": "UFC Fight Night: Fiziev vs. Gamrot",
    "date": "2023-09-23",
    "location": {
      "city": "Las Vegas",
      "state": "Nevada",
      "country": "USA"
    }
  },
  {
    "name": "UFC Fight Night: Grasso vs. Shevchenko 2",
    "date": "2023-09-16",
    "location": {
      "city": "Las Vegas",
      "state": "Nevada",
      "country": "USA"
    }
  },
  {
    "name": "UFC 293: Adesanya vs. Strickland",
    "date": "2023-09-09",
    "location": {
      "city": "Sydney",
      "state": "New South Wales",
      "country": "Australia"
    }
  },
  {
    "name": "UFC Fight Night: Gane vs. Spivac",
    "date": "2023-09-02",
    "location": {
      "city": "Paris",
      "state": "Ile-de-France",
      "country": "France"
    }
  },
  {
    "name": "UFC Fight Night: Holloway vs. The Korean Zombie",
    "date": "2023-08-26",
    "location": {
      "city": "Kallang",
      "country": "Singapore"
    }
  },
  {
    "name": "UFC 292: Sterling vs. O'Malley",
    "date": "2023-08-19",
    "location": {
      "city": "Boston",
      "state": "Massachusetts",
      "country": "USA"
    }
  },
  {
    "name": "UFC Fight Night: Luque vs. Dos Anjos",
    "date": "2023-08-12",
    "location": {
      "city": "Las Vegas",
      "state": "Nevada",
      "country": "USA"
    }
  },
  {
    "name": "UFC Fight Night: Sandhagen vs. Font",
    "date": "2023-08-05",
    "location": {
      "city": "Nashville",
      "state": "Tennessee",
      "country": "USA"
    }
  },
  {
    "name": "UFC 291: Poirier vs. Gaethje 2",
    "date": "2023-07-29",
    "location": {
      "city": "Salt Lake City",
      "state": "Utah",
      "country": "USA"
    }
  },
  {
    "name": "UFC Fight Night: Aspinall vs. Tybura",
    "date": "2023-07-22",
    "location": {
      "city": "London",
      "state": "England",
      "country": "United Kingdom"
    }
  },
  {
    "name": "UFC Fight Night: Holm vs. Bueno Silva",
    "date": "2023-07-15",
    "location": {
      "city": "Las Vegas",
      "state": "Nevada",
      "country": "USA"
    }
  },
  {
    "name": "UFC 290: Volkanovski vs. Rodriguez",
    "date": "2023-07-08",
    "location": {
      "city": "Las Vegas",
      "state": "Nevada",
      "country": "USA"
    }
  },
  {
    "name": "UFC Fight Night: Strickland vs. Magomedov",
    "date": "2023-07-01",
    "location": {
      "city": "Las Vegas",
      "state": "Nevada",
      "country": "USA"
    }
  },
  {
    "name": "UFC Fight Night: Emmett vs. Topuria",
    "date": "2023-06-24",
    "location": {
      "city": "Jacksonville",
      "state": "Florida",
      "country": "USA"
    }
  },
  {
    "name": "UFC Fight Night: Vettori vs. Cannonier",
    "date": "2023-06-17",
    "location": {
      "city": "Las Vegas",
      "state": "Nevada",
      "country": "USA"
    }
  },
  {
    "name": "UFC 289: Nunes vs. Aldana",
    "date": "2023-06-10",
    "location": {
      "city": "Vancouver",
      "state": "British Columbia",
      "country": "Canada"
    }
  },
  {
    "name": "UFC Fight Night: Kara-France vs. Albazi",
    "date": "2023-06-03",
    "location": {
      "city": "Las Vegas",
      "state": "Nevada",
      "country": "USA"
    }
  },
  {
    "name": "UFC Fight Night: Dern vs. Hill",
    "date": "2023-05-20",
    "location": {
      "city": "Las Vegas",
      "state": "Nevada",
      "country": "USA"
    }
  },
  {
    "name": "UFC Fight Night: Rozenstruik vs. Almeida",
    "date": "2023-05-13",
    "location": {
      "city": "Charlotte",
      "state": "North Carolina",
      "country": "USA"
    }
  },
  {
    "name": "UFC 288: Sterling vs. Cejudo",
    "date": "2023-05-06",
    "location": {
      "city": "Newark",
      "state": "New Jersey",
      "country": "USA"
    }
  },
  {
    "name": "UFC Fight Night: Song vs. Simon",
    "date": "2023-04-29",
    "location": {
      "city": "Las Vegas",
      "state": "Nevada",
      "country": "USA"
    }
  },
  {
    "name": "UFC Fight Night: Pavlovich vs. Blaydes",
    "date": "2023-04-22",
    "location": {
      "city": "Las Vegas",
      "state": "Nevada",
      "country": "USA"
    }
  },
  {
    "name": "UFC Fight Night: Holloway vs. Allen",
    "date": "2023-04-15",
    "location": {
      "city": "Kansas City",
      "state": "Missouri",
      "country": "USA"
    }
  },
  {
    "name": "UFC 287: Pereira vs. Adesanya 2",
    "date": "2023-04-08",
    "location": {
      "city": "Miami",
      "state": "Florida",
      "country": "USA"
    }
  },
  {
    "name": "UFC Fight Night: Vera vs. Sandhagen",
    "date": "2023-03-25",
    "location": {
      "city": "San Antonio",
      "state": "Texas",
      "country": "USA"
    }
  },
  {
    "name": "UFC 286: Edwards vs. Usman 3",
    "date": "2023-03-18",
    "location": {
      "city": "London",
      "state": "England",
      "country": "United Kingdom"
    }
  },
  {
    "name": "UFC Fight Night: Yan vs. Dvalishvili",
    "date": "2023-03-11",
    "location": {
      "city": "Las Vegas",
      "state": "Nevada",
      "country": "USA"
    }
  },
  {
    "name": "UFC 285: Jones vs. Gane",
    "date": "2023-03-04",
    "location": {
      "city": "Las Vegas",
      "state": "Nevada",
      "country": "USA"
    }
  },
  {
    "name": "UFC Fight Night: Muniz vs. Allen",
    "date": "2023-02-25",
    "location": {
      "city": "Las Vegas",
      "state": "Nevada",
      "country": "USA"
    }
  },
  {
    "name": "UFC Fight Night: Andrade vs. Blanchfield",
    "date": "2023-02-18",
    "location": {
      "city": "Las Vegas",
      "state": "Nevada",
      "country": "USA"
    }
  },
  {
    "name": "UFC 284: Makhachev vs. Volkanovski",
    "date": "2023-02-11",
    "location": {
      "city": "Perth",
      "state": "Western Australia",
      "country": "Australia"
    }
  },
  {
    "name": "UFC Fight Night: Lewis vs. Spivac",
    "date": "2023-02-04",
    "location": {
      "city": "Las Vegas",
      "state": "Nevada",
      "country": "USA"
    }
  },
  {
    "name": "UFC 283: Teixeira vs. Hill",
    "date": "2023-01-21",
    "location": {
      "city": "Rio de Janeiro",
      "state": "Rio de Janeiro",
      "country": "Brazil"
    }
  },
  {
    "name": "UFC Fight Night: Strickland vs. Imavov",
    "date": "2023-01-14",
    "location": {
      "city": "Las Vegas",
      "state": "Nevada",
      "country": "USA"
    }
  },
  {
    "name": "UFC Fight Night: Cannonier vs. Strickland",
    "date": "2022-12-17",
    "location": {
      "city": "Las Vegas",
      "state": "Nevada",
      "country": "USA"
    }
  },
  {
    "name": "UFC 282: Blachowicz vs. Ankalaev",
    "date": "2022-12-10",
    "location": {
      "city": "Las Vegas",
      "state": "Nevada",
      "country": "USA"
    }
  },
  {
    "name": "UFC Fight Night: Thompson vs. Holland",
    "date": "2022-12-03",
    "location": {
      "city": "Orlando",
      "state": "Florida",
      "country": "USA"
    }
  },
  {
    "name": "UFC Fight Night: Nzechukwu vs. Cutelaba",
    "date": "2022-11-19",
    "location": {
      "city": "Las Vegas",
      "state": "Nevada",
      "country": "USA"
    }
  },
  {
    "name": "UFC 281: Adesanya vs. Pereira",
    "date": "2022-11-12",
    "location": {
      "city": "New York City",
      "state": "New York",
      "country": "USA"
    }
  },
  {
    "name": "UFC Fight Night: Rodriguez vs. Lemos",
    "date": "2022-11-05",
    "location": {
      "city": "Las Vegas",
      "state": "Nevada",
      "country": "USA"
    }
  },
  {
    "name": "UFC Fight Night: Kattar vs. Allen",
    "date": "2022-10-29",
    "location": {
      "city": "Las Vegas",
      "state": "Nevada",
      "country": "USA"
    }
  },
  {
    "name": "UFC 280: Oliveira vs. Makhachev",
    "date": "2022-10-22",
    "location": {
      "city": "Abu Dhabi",
      "state": "Abu Dhabi",
      "country": "United Arab Emirates"
    }
  },
  {
    "name": "UFC Fight Night: Grasso vs. Araujo",
    "date": "2022-10-15",
    "location": {
      "city": "Las Vegas",
      "state": "Nevada",
      "country": "USA"
    }
  },
  {
    "name": "UFC Fight Night: Dern vs. Yan",
    "date": "2022-10-01",
    "location": {
      "city": "Las Vegas",
      "state": "Nevada",
      "country": "USA"
    }
  },
  {
    "name": "UFC Fight Night: Sandhagen vs. Song",
    "date": "2022-09-17",
    "location": {
      "city": "Las Vegas",
      "state": "Nevada",
      "country": "USA"
    }
  },
  {
    "name": "UFC 279: Diaz vs. Ferguson",
    "date": "2022-09-10",
    "location": {
      "city": "Las Vegas",
      "state": "Nevada",
      "country": "USA"
    }
  },
  {
    "name": "UFC Fight Night: Gane vs. Tuivasa",
    "date": "2022-09-03",
    "location": {
      "city": "Paris",
      "state": "Ile-de-France",
      "country": "France"
    }
  },
  {
    "name": "UFC 278: Usman vs. Edwards",
    "date": "2022-08-20",
    "location": {
      "city": "Salt Lake City",
      "state": "Utah",
      "country": "USA"
    }
  },
  {
    "name": "UFC Fight Night: Vera vs. Cruz",
    "date": "2022-08-13",
    "location": {
      "city": "San Diego",
      "state": "California",
      "country": "USA"
    }
  },
  {
    "name": "UFC Fight Night: Santos vs. Hill",
    "date": "2022-08-06",
    "location": {
      "city": "Las Vegas",
      "state": "Nevada",
      "country": "USA"
    }
  },
  {
    "name": "UFC 277: Pena vs. Nunes 2",
    "date": "2022-07-30",
    "location": {
      "city": "Dallas",
      "state": "Texas",
      "country": "USA"
    }
  },
  {
    "name": "UFC Fight Night: Blaydes vs. Aspinall",
    "date": "2022-07-23",
    "location": {
      "city": "London",
      "state": "England",
      "country": "United Kingdom"
    }
  },
  {
    "name": "UFC Fight Night: Ortega vs. Rodriguez",
    "date": "2022-07-16",
    "location": {
      "city": "Elmont",
      "state": "New York",
      "country": "USA"
    }
  },
  {
    "name": "UFC Fight Night: Dos Anjos vs. Fiziev",
    "date": "2022-07-09",
    "location": {
      "city": "Las Vegas",
      "state": "Nevada",
      "country": "USA"
    }
  },
  {
    "name": "UFC 276: Adesanya vs. Cannonier",
    "date": "2022-07-02",
    "location": {
      "city": "Las Vegas",
      "state": "Nevada",
      "country": "USA"
    }
  },
  {
    "name": "UFC Fight Night: Tsarukyan vs. Gamrot",
    "date": "2022-06-25",
    "location": {
      "city": "Las Vegas",
      "state": "Nevada",
      "country": "USA"
    }
  },
  {
    "name": "UFC Fight Night: Kattar vs. Emmett",
    "date": "2022-06-18",
    "location": {
      "city": "Austin",
      "state": "Texas",
      "country": "USA"
    }
  },
  {
    "name": "UFC 275: Teixeira vs. Prochazka",
    "date": "2022-06-11",
    "location": {
      "city": "Kallang",
      "country": "Singapore"
    }
  },
  {
    "name": "UFC Fight Night: Volkov vs. Rozenstruik",
    "date": "2022-06-04",
    "location": {
      "city": "Las Vegas",
      "state": "Nevada",
      "country": "USA"
    }
  },
  {
    "name": "UFC Fight Night: Holm vs. Vieira",
    "date": "2022-05-21",
    "location": {
      "city": "Las Vegas",
      "state": "Nevada",
      "country": "USA"
    }
  },
  {
    "name": "UFC Fight Night: Blachowicz vs. Rakic",
    "date": "2022-05-14",
    "location": {
      "city": "Las Vegas",
      "state": "Nevada",
      "country": "USA"
    }
  },
  {
    "name": "UFC 274: Oliveira vs. Gaethje",
    "date": "2022-05-07",
    "location": {
      "city": "Phoenix",
      "state": "Arizona",
      "country": "USA"
    }
  },
  {
    "name": "UFC Fight Night: Font vs. Vera",
    "date": "2022-04-30",
    "location": {
      "city": "Las Vegas",
      "state": "Nevada",
      "country": "USA"
    }
  },
  {
    "name": "UFC Fight Night: Lemos vs. Andrade",
    "date": "2022-04-23",
    "location": {
      "city": "Las Vegas",
      "state": "Nevada",
      "country": "USA"
    }
  },
  {
    "name": "UFC Fight Night: Luque vs. Muhammad",
    "date": "2022-04-16",
    "location": {
      "city": "Las Vegas",
      "state": "Nevada",
      "country": "USA"
    }
  },
  {
    "name": "UFC 273: Volkanovski vs. The Korean Zombie",
    "date": "2022-04-09",
    "location": {
      "city": "Jacksonville",
      "state": "Florida",
      "country": "USA"
    }
  },
  {
    "name": "UFC Fight Night: Blaydes vs. Daukaus",
    "date": "2022-03-26",
    "location": {
      "city": "Columbus",
      "state": "Ohio",
      "country": "USA"
    }
  },
  {
    "name": "UFC Fight Night: Volkov vs. Aspinall",
    "date": "2022-03-19",
    "location": {
      "city": "London",
      "state": "England",
      "country": "United Kingdom"
    }
  },
  {
    "name": "UFC Fight Night: Santos vs. Ankalaev",
    "date": "2022-03-12",
    "location": {
      "city": "Las Vegas",
      "state": "Nevada",
      "country": "USA"
    }
  },
  {
    "name": "UFC 272: Covington vs. Masvidal",
    "date": "2022-03-05",
    "location": {
      "city": "Las Vegas",
      "state": "Nevada",
      "country": "USA"
    }
  },
  {
    "name": "UFC Fight Night: Makhachev vs. Green",
    "date": "2022-02-26",
    "location": {
      "city": "Las Vegas",
      "state": "Nevada",
      "country": "USA"
    }
  },
  {
    "name": "UFC Fight Night: Walker vs. Hill",
    "date": "2022-02-19",
    "location": {
      "city": "Las Vegas",
      "state": "Nevada",
      "country": "USA"
    }
  },
  {
    "name": "UFC 271: Adesanya vs. Whittaker 2",
    "date": "2022-02-12",
    "location": {
      "city": "Houston",
      "state": "Texas",
      "country": "USA"
    }
  },
  {
    "name": "UFC Fight Night: Hermansson vs. Strickland",
    "date": "2022-02-05",
    "location": {
      "city": "Las Vegas",
      "state": "Nevada",
      "country": "USA"
    }
  },
  {
    "name": "UFC 270: Ngannou vs. Gane",
    "date": "2022-01-22",
    "location": {
      "city": "Anaheim",
      "state": "California",
      "country": "USA"
    }
  },
  {
    "name": "UFC Fight Night: Kattar vs. Chikadze",
    "date": "2022-01-15",
    "location": {
      "city": "Las Vegas",
      "state": "Nevada",
      "country": "USA"
    }
  },
  {
    "name": "UFC Fight Night: Lewis vs. Daukaus",
    "date": "2021-12-18",
    "location": {
      "city": "Las Vegas",
      "state": "Nevada",
      "country": "USA"
    }
  },
  {
    "name": "UFC 269: Oliveira vs. Poirier",
    "date": "2021-12-11",
    "location": {
      "city": "Las Vegas",
      "state": "Nevada",
      "country": "USA"
    }
  },
  {
    "name": "UFC Fight Night: Font vs. Aldo",
    "date": "2021-12-04",
    "location": {
      "city": "Las Vegas",
      "state": "Nevada",
      "country": "USA"
    }
  },
  {
    "name": "UFC Fight Night: Vieira vs. Tate",
    "date": "2021-11-20",
    "location": {
      "city": "Las Vegas",
      "state": "Nevada",
      "country": "USA"
    }
  },
  {
    "name": "UFC Fight Night: Holloway vs. Rodriguez",
    "date": "2021-11-13",
    "location": {
      "city": "Las Vegas",
      "state": "Nevada",
      "country": "USA"
    }
  },
  {
    "name": "UFC 268: Usman vs. Covington 2",
    "date": "2021-11-06",
    "location": {
      "city": "New York City",
      "state": "New York",
      "country": "USA"
    }
  },
  {
    "name": "UFC 267: Blachowicz vs. Teixeira",
    "date": "2021-10-30",
    "location": {
      "city": "Abu Dhabi",
      "state": "Abu Dhabi",
      "country": "United Arab Emirates"
    }
  },
  {
    "name": "UFC Fight Night: Costa vs. Vettori",
    "date": "2021-10-23",
    "location": {
      "city": "Las Vegas",
      "state": "Nevada",
      "country": "USA"
    }
  },
  {
    "name": "UFC Fight Night: Ladd vs. Dumont",
    "date": "2021-10-16",
    "location": {
      "city": "Las Vegas",
      "state": "Nevada",
      "country": "USA"
    }
  },
  {
    "name": "UFC Fight Night: Dern vs. Rodriguez",
    "date": "2021-10-09",
    "location": {
      "city": "Las Vegas",
      "state": "Nevada",
      "country": "USA"
    }
  },
  {
    "name": "UFC Fight Night: Santos vs. Walker",
    "date": "2021-10-02",
    "location": {
      "city": "Las Vegas",
      "state": "Nevada",
      "country": "USA"
    }
  },
  {
    "name": "UFC 266: Volkanovski vs. Ortega",
    "date": "2021-09-25",
    "location": {
      "city": "Las Vegas",
      "state": "Nevada",
      "country": "USA"
    }
  },
  {
    "name": "UFC Fight Night: Smith vs. Spann",
    "date": "2021-09-18",
    "location": {
      "city": "Las Vegas",
      "state": "Nevada",
      "country": "USA"
    }
  },
  {
    "name": "UFC Fight Night: Brunson vs. Till",
    "date": "2021-09-04",
    "location": {
      "city": "Las Vegas",
      "state": "Nevada",
      "country": "USA"
    }
  },
  {
    "name": "UFC Fight Night: Barboza vs. Chikadze",
    "date": "2021-08-28",
    "location": {
      "city": "Las Vegas",
      "state": "Nevada",
      "country": "USA"
    }
  },
  {
    "name": "UFC Fight Night: Cannonier vs. Gastelum",
    "date": "2021-08-21",
    "location": {
      "city": "Las Vegas",
      "state": "Nevada",
      "country": "USA"
    }
  },
  {
    "name": "UFC 265: Lewis vs. Gane",
    "date": "2021-08-07",
    "location": {
      "city": "Houston",
      "state": "Texas",
      "country": "USA"
    }
  },
  {
    "name": "UFC Fight Night: Hall vs. Strickland",
    "date": "2021-07-31",
    "location": {
      "city": "Las Vegas",
      "state": "Nevada",
      "country": "USA"
    }
  },
  {
    "name": "UFC Fight Night: Sandhagen vs. Dillashaw",
    "date": "2021-07-24",
    "location": {
      "city": "Las Vegas",
      "state": "Nevada",
      "country": "USA"
    }
  },
  {
    "name": "UFC Fight Night: Makhachev vs. Moises",
    "date": "2021-07-17",
    "location": {
      "city": "Las Vegas",
      "state": "Nevada",
      "country": "USA"
    }
  },
  {
    "name": "UFC 264: Poirier vs. McGregor 3",
    "date": "2021-07-10",
    "location": {
      "city": "Las Vegas",
      "state": "Nevada",
      "country": "USA"
    }
  },
  {
    "name": "UFC Fight Night: Gane vs. Volkov",
    "date": "2021-06-26",
    "location": {
      "city": "Las Vegas",
      "state": "Nevada",
      "country": "USA"
    }
  },
  {
    "name": "UFC Fight Night: Jung vs. Ige",
    "date": "2021-06-19",
    "location": {
      "city": "Las Vegas",
      "state": "Nevada",
      "country": "USA"
    }
  },
  {
    "name": "UFC 263: Adesanya vs. Vettori 2",
    "date": "2021-06-12",
    "location": {
      "city": "Glendale",
      "state": "Arizona",
      "country": "USA"
    }
  },
  {
    "name": "UFC Fight Night: Rozenstruik vs. Sakai",
    "date": "2021-06-05",
    "location": {
      "city": "Las Vegas",
      "state": "Nevada",
      "country": "USA"
    }
  },
  {
    "name": "UFC Fight Night: Font vs. Garbrandt",
    "date": "2021-05-22",
    "location": {
      "city": "Las Vegas",
      "state": "Nevada",
      "country": "USA"
    }
  },
  {
    "name": "UFC 262: Oliveira vs. Chandler",
    "date": "2021-05-15",
    "location": {
      "city": "Houston",
      "state": "Texas",
      "country": "USA"
    }
  },
  {
    "name": "UFC Fight Night: Rodriguez vs. Waterson",
    "date": "2021-05-08",
    "location": {
      "city": "Las Vegas",
      "state": "Nevada",
      "country": "USA"
    }
  },
  {
    "name": "UFC Fight Night: Reyes vs. Prochazka",
    "date": "2021-05-01",
    "location": {
      "city": "Las Vegas",
      "state": "Nevada",
      "country": "USA"
    }
  },
  {
    "name": "UFC 261: Usman vs. Masvidal 2",
    "date": "2021-04-24",
    "location": {
      "city": "Jacksonville",
      "state": "Florida",
      "country": "USA"
    }
  },
  {
    "name": "UFC Fight Night: Whittaker vs. Gastelum",
    "date": "2021-04-17",
    "location": {
      "city": "Las Vegas",
      "state": "Nevada",
      "country": "USA"
    }
  },
  {
    "name": "UFC Fight Night: Vettori vs. Holland",
    "date": "2021-04-10",
    "location": {
      "city": "Las Vegas",
      "state": "Nevada",
      "country": "USA"
    }
  },
  {
    "name": "UFC 260: Miocic vs. Ngannou",
    "date": "2021-03-27",
    "location": {
      "city": "Las Vegas",
      "state": "Nevada",
      "country": "USA"
    }
  },
  {
    "name": "UFC Fight Night: Brunson vs. Holland",
    "date": "2021-03-20",
    "location": {
      "city": "Las Vegas",
      "state": "Nevada",
      "country": "USA"
    }
  },
  {
    "name": "UFC Fight Night: Edwards vs. Muhammad",
    "date": "2021-03-13",
    "location": {
      "city": "Las Vegas",
      "state": "Nevada",
      "country": "USA"
    }
  },
  {
    "name": "UFC 259: Blachowicz vs. Adesanya",
    "date": "2021-03-06",
    "location": {
      "city": "Las Vegas",
      "state": "Nevada",
      "country": "USA"
    }
  },
  {
    "name": "UFC Fight Night: Rozenstruik vs. Gane",
    "date": "2021-02-27",
    "location": {
      "city": "Las Vegas",
      "state": "Nevada",
      "country": "USA"
    }
  },
  {
    "name": "UFC Fight Night: Blaydes vs. Lewis",
    "date": "2021-02-20",
    "location": {
      "city": "Las Vegas",
      "state": "Nevada",
      "country": "USA"
    }
  },
  {
    "name": "UFC 258: Usman vs. Burns",
    "date": "2021-02-13",
    "location": {
      "city": "Las Vegas",
      "state": "Nevada",
      "country": "USA"
    }
  },
  {
    "name": "UFC Fight Night: Overeem vs. Volkov",
    "date": "2021-02-06",
    "location": {
      "city": "Las Vegas",
      "state": "Nevada",
      "country": "USA"
    }
  },
  {
    "name": "UFC 257: Poirier vs. McGregor",
    "date": "2021-01-23",
    "location": {
      "city": "Abu Dhabi",
      "state": "Abu Dhabi",
      "country": "United Arab Emirates"
    }
  },
  {
    "name": "UFC Fight Night: Chiesa vs. Magny",
    "date": "2021-01-20",
    "location": {
      "city": "Abu Dhabi",
      "state": "Abu Dhabi",
      "country": "United Arab Emirates"
    }
  },
  {
    "name": "UFC Fight Night: Holloway vs. Kattar",
    "date": "2021-01-16",
    "location": {
      "city": "Abu Dhabi",
      "state": "Abu Dhabi",
      "country": "United Arab Emirates"
    }
  },
  {
    "name": "UFC Fight Night: Thompson vs. Neal",
    "date": "2020-12-19",
    "location": {
      "city": "Las Vegas",
      "state": "Nevada",
      "country": "USA"
    }
  },
  {
    "name": "UFC 256: Figueiredo vs. Moreno",
    "date": "2020-12-12",
    "location": {
      "city": "Las Vegas",
      "state": "Nevada",
      "country": "USA"
    }
  },
  {
    "name": "UFC Fight Night: Hermansson vs. Vettori",
    "date": "2020-12-05",
    "location": {
      "city": "Las Vegas",
      "state": "Nevada",
      "country": "USA"
    }
  },
  {
    "name": "UFC Fight Night: Smith vs. Clark",
    "date": "2020-11-28",
    "location": {
      "city": "Las Vegas",
      "state": "Nevada",
      "country": "USA"
    }
  },
  {
    "name": "UFC 255: Figueiredo vs. Perez",
    "date": "2020-11-21",
    "location": {
      "city": "Las Vegas",
      "state": "Nevada",
      "country": "USA"
    }
  },
  {
    "name": "UFC Fight Night: Felder vs. Dos Anjos",
    "date": "2020-11-14",
    "location": {
      "city": "Las Vegas",
      "state": "Nevada",
      "country": "USA"
    }
  },
  {
    "name": "UFC Fight Night: Santos vs. Teixeira",
    "date": "2020-11-07",
    "location": {
      "city": "Las Vegas",
      "state": "Nevada",
      "country": "USA"
    }
  },
  {
    "name": "UFC Fight Night: Hall vs. Silva",
    "date": "2020-10-31",
    "location": {
      "city": "Las Vegas",
      "state": "Nevada",
      "country": "USA"
    }
  },
  {
    "name": "UFC 254: Khabib vs. Gaethje",
    "date": "2020-10-24",
    "location": {
      "city": "Abu Dhabi",
      "state": "Abu Dhabi",
      "country": "United Arab Emirates"
    }
  },
  {
    "name": "UFC Fight Night: Ortega vs. The Korean Zombie",
    "date": "2020-10-17",
    "location": {
      "city": "Abu Dhabi",
      "state": "Abu Dhabi",
      "country": "United Arab Emirates"
    }
  },
  {
    "name": "UFC Fight Night: Moraes vs. Sandhagen",
    "date": "2020-10-10",
    "location": {
      "city": "Abu Dhabi",
      "state": "Abu Dhabi",
      "country": "United Arab Emirates"
    }
  },
  {
    "name": "UFC Fight Night: Holm vs. Aldana",
    "date": "2020-10-03",
    "location": {
      "city": "Abu Dhabi",
      "state": "Abu Dhabi",
      "country": "United Arab Emirates"
    }
  },
  {
    "name": "UFC 253: Adesanya vs. Costa",
    "date": "2020-09-26",
    "location": {
      "city": "Abu Dhabi",
      "state": "Abu Dhabi",
      "country": "United Arab Emirates"
    }
  },
  {
    "name": "UFC Fight Night: Covington vs. Woodley",
    "date": "2020-09-19",
    "location": {
      "city": "Las Vegas",
      "state": "Nevada",
      "country": "USA"
    }
  },
  {
    "name": "UFC Fight Night: Waterson vs. Hill",
    "date": "2020-09-12",
    "location": {
      "city": "Las Vegas",
      "state": "Nevada",
      "country": "USA"
    }
  },
  {
    "name": "UFC Fight Night: Overeem vs. Sakai",
    "date": "2020-09-05",
    "location": {
      "city": "Las Vegas",
      "state": "Nevada",
      "country": "USA"
    }
  },
  {
    "name": "UFC Fight Night: Smith vs. Rakic",
    "date": "2020-08-29",
    "location": {
      "city": "Las Vegas",
      "state": "Nevada",
      "country": "USA"
    }
  },
  {
    "name": "UFC Fight Night: Munhoz vs. Edgar",
    "date": "2020-08-22",
    "location": {
      "city": "Las Vegas",
      "state": "Nevada",
      "country": "USA"
    }
  },
  {
    "name": "UFC 252: Miocic vs. Cormier 3",
    "date": "2020-08-15",
    "location": {
      "city": "Las Vegas",
      "state": "Nevada",
      "country": "USA"
    }
  },
  {
    "name": "UFC Fight Night: Lewis vs. Oleinik",
    "date": "2020-08-08",
    "location": {
      "city": "Las Vegas",
      "state": "Nevada",
      "country": "USA"
    }
  },
  {
    "name": "UFC Fight Night: Brunson vs. Shahbazyan",
    "date": "2020-08-01",
    "location": {
      "city": "Las Vegas",
      "state": "Nevada",
      "country": "USA"
    }
  },
  {
    "name": "UFC Fight Night: Whittaker vs. Till",
    "date": "2020-07-25",
    "location": {
      "city": "Abu Dhabi",
      "state": "Abu Dhabi",
      "country": "United Arab Emirates"
    }
  },
  {
    "name": "UFC Fight Night: Figueiredo vs. Benavidez 2",
    "date": "2020-07-18",
    "location": {
      "city": "Abu Dhabi",
      "state": "Abu Dhabi",
      "country": "United Arab Emirates"
    }
  },
  {
    "name": "UFC Fight Night: Kattar vs. Ige",
    "date": "2020-07-15",
    "location": {
      "city": "Abu Dhabi",
      "state": "Abu Dhabi",
      "country": "United Arab Emirates"
    }
  },
  {
    "name": "UFC 251: Usman vs. Masvidal",
    "date": "2020-07-11",
    "location": {
      "city": "Abu Dhabi",
      "state": "Abu Dhabi",
      "country": "United Arab Emirates"
    }
  },
  {
    "name": "UFC Fight Night: Poirier vs. Hooker",
    "date": "2020-06-27",
    "location": {
      "city": "Las Vegas",
      "state": "Nevada",
      "country": "USA"
    }
  },
  {
    "name": "UFC Fight Night: Blaydes vs. Volkov",
    "date": "2020-06-20",
    "location": {
      "city": "Las Vegas",
      "state": "Nevada",
      "country": "USA"
    }
  },
  {
    "name": "UFC Fight Night: Eye vs. Calvillo",
    "date": "2020-06-13",
    "location": {
      "city": "Las Vegas",
      "state": "Nevada",
      "country": "USA"
    }
  },
  {
    "name": "UFC 250: Nunes vs. Spencer",
    "date": "2020-06-06",
    "location": {
      "city": "Las Vegas",
      "state": "Nevada",
      "country": "USA"
    }
  },
  {
    "name": "UFC Fight Night: Woodley vs. Burns",
    "date": "2020-05-30",
    "location": {
      "city": "Las Vegas",
      "state": "Nevada",
      "country": "USA"
    }
  },
  {
    "name": "UFC Fight Night: Overeem vs. Harris",
    "date": "2020-05-16",
    "location": {
      "city": "Jacksonville",
      "state": "Florida",
      "country": "USA"
    }
  },
  {
    "name": "UFC Fight Night: Smith vs. Teixeira",
    "date": "2020-05-13",
    "location": {
      "city": "Jacksonville",
      "state": "Florida",
      "country": "USA"
    }
  },
  {
    "name": "UFC 249: Ferguson vs. Gaethje",
    "date": "2020-05-09",
    "location": {
      "city": "Jacksonville",
      "state": "Florida",
      "country": "USA"
    }
  },
  {
    "name": "UFC Fight Night: Lee vs. Oliveira",
    "date": "2020-03-14",
    "location": {
      "city": "Brasilia",
      "state": "Distrito Federal",
      "country": "Brazil"
    }
  },
  {
    "name": "UFC 248: Adesanya vs. Romero",
    "date": "2020-03-07",
    "location": {
      "city": "Las Vegas",
      "state": "Nevada",
      "country": "USA"
    }
  },
  {
    "name": "UFC Fight Night: Benavidez vs. Figueiredo",
    "date": "2020-02-29",
    "location": {
      "city": "Norfolk",
      "state": "Virginia",
      "country": "USA"
    }
  },
  {
    "name": "UFC Fight Night: Felder vs. Hooker",
    "date": "2020-02-22",
    "location": {
      "city": "Auckland",
      "country": "New Zealand"
    }
  },
  {
    "name": "UFC Fight Night: Anderson vs. Blachowicz",
    "date": "2020-02-15",
    "location": {
      "city": "Rio Rancho",
      "state": "New Mexico",
      "country": "USA"
    }
  },
  {
    "name": "UFC 247: Jones vs. Reyes",
    "date": "2020-02-08",
    "location": {
      "city": "Houston",
      "state": "Texas",
      "country": "USA"
    }
  },
  {
    "name": "UFC Fight Night: Blaydes vs. Dos Santos",
    "date": "2020-01-25",
    "location": {
      "city": "Raleigh",
      "state": "North Carolina",
      "country": "USA"
    }
  },
  {
    "name": "UFC 246: McGregor vs. Cowboy",
    "date": "2020-01-18",
    "location": {
      "city": "Las Vegas",
      "state": "Nevada",
      "country": "USA"
    }
  },
  {
    "name": "UFC Fight Night: Edgar vs. The Korean Zombie",
    "date": "2019-12-21",
    "location": {
      "city": "Busan",
      "country": "South Korea"
    }
  },
  {
    "name": "UFC 245: Usman vs. Covington",
    "date": "2019-12-14",
    "location": {
      "city": "Las Vegas",
      "state": "Nevada",
      "country": "USA"
    }
  },
  {
    "name": "UFC Fight Night: Overeem vs. Rozenstruik",
    "date": "2019-12-07",
    "location": {
      "city": "Washington",
      "state": "DC",
      "country": "USA"
    }
  },
  {
    "name": "UFC Fight Night: Blachowicz vs. Jacare",
    "date": "2019-11-16",
    "location": {
      "city": "Sao Paulo",
      "state": "Sao Paulo",
      "country": "Brazil"
    }
  },
  {
    "name": "UFC Fight Night: Zabit vs. Kattar",
    "date": "2019-11-09",
    "location": {
      "city": "Moscow",
      "state": "Moscow",
      "country": "Russia"
    }
  },
  {
    "name": "UFC 244: Masvidal vs. Diaz",
    "date": "2019-11-02",
    "location": {
      "city": "New York City",
      "state": "New York",
      "country": "USA"
    }
  },
  {
    "name": "UFC Fight Night: Maia vs. Askren",
    "date": "2019-10-26",
    "location": {
      "city": "Kallang",
      "country": "Singapore"
    }
  },
  {
    "name": "UFC Fight Night: Reyes vs. Weidman",
    "date": "2019-10-18",
    "location": {
      "city": "Boston",
      "state": "Massachusetts",
      "country": "USA"
    }
  },
  {
    "name": "UFC Fight Night: Joanna vs. Waterson",
    "date": "2019-10-12",
    "location": {
      "city": "Tampa",
      "state": "Florida",
      "country": "USA"
    }
  },
  {
    "name": "UFC 243: Whittaker vs. Adesanya",
    "date": "2019-10-05",
    "location": {
      "city": "Melbourne",
      "state": "Victoria",
      "country": "Australia"
    }
  },
  {
    "name": "UFC Fight Night: Hermansson vs. Cannonier",
    "date": "2019-09-28",
    "location": {
      "city": "Copenhagen",
      "country": "Denmark"
    }
  },
  {
    "name": "UFC Fight Night: Rodriguez vs. Stephens",
    "date": "2019-09-21",
    "location": {
      "city": "Mexico City",
      "state": "Distrito Federal",
      "country": "Mexico"
    }
  },
  {
    "name": "UFC Fight Night: Cowboy vs. Gaethje",
    "date": "2019-09-14",
    "location": {
      "city": "Vancouver",
      "state": "British Columbia",
      "country": "Canada"
    }
  },
  {
    "name": "UFC 242: Khabib vs. Poirier",
    "date": "2019-09-07",
    "location": {
      "city": "Abu Dhabi",
      "state": "Abu Dhabi",
      "country": "United Arab Emirates"
    }
  },
  {
    "name": "UFC Fight Night: Andrade vs. Zhang",
    "date": "2019-08-31",
    "location": {
      "city": "Shenzhen",
      "state": "Guangdong",
      "country": "China"
    }
  },
  {
    "name": "UFC 241: Cormier vs. Miocic 2",
    "date": "2019-08-17",
    "location": {
      "city": "Anaheim",
      "state": "California",
      "country": "USA"
    }
  },
  {
    "name": "UFC Fight Night: Shevchenko vs. Carmouche 2",
    "date": "2019-08-10",
    "location": {
      "city": "Montevideo",
      "country": "Uruguay"
    }
  },
  {
    "name": "UFC Fight Night: Covington vs. Lawler",
    "date": "2019-08-03",
    "location": {
      "city": "Newark",
      "state": "New Jersey",
      "country": "USA"
    }
  },
  {
    "name": "UFC 240: Holloway vs. Edgar",
    "date": "2019-07-27",
    "location": {
      "city": "Edmonton",
      "state": "Alberta",
      "country": "Canada"
    }
  },
  {
    "name": "UFC Fight Night: Dos Anjos vs. Edwards",
    "date": "2019-07-20",
    "location": {
      "city": "San Antonio",
      "state": "Texas",
      "country": "USA"
    }
  },
  {
    "name": "UFC Fight Night: De Randamie vs. Ladd",
    "date": "2019-07-13",
    "location": {
      "city": "Sacramento",
      "state": "California",
      "country": "USA"
    }
  },
  {
    "name": "UFC 239: Jones vs. Santos",
    "date": "2019-07-06",
    "location": {
      "city": "Las Vegas",
      "state": "Nevada",
      "country": "USA"
    }
  },
  {
    "name": "UFC Fight Night: Ngannou vs. Dos Santos",
    "date": "2019-06-29",
    "location": {
      "city": "Minneapolis",
      "state": "Minnesota",
      "country": "USA"
    }
  },
  {
    "name": "UFC Fight Night: Moicano vs. The Korean Zombie",
    "date": "2019-06-22",
    "location": {
      "city": "Greenville",
      "state": "South Carolina",
      "country": "USA"
    }
  },
  {
    "name": "UFC 238: Cejudo vs. Moraes",
    "date": "2019-06-08",
    "location": {
      "city": "Chicago",
      "state": "Illinois",
      "country": "USA"
    }
  },
  {
    "name": "UFC Fight Night: Gustafsson vs. Smith",
    "date": "2019-06-01",
    "location": {
      "city": "Stockholm",
      "country": "Sweden"
    }
  },
  {
    "name": "UFC Fight Night: Dos Anjos vs. Lee",
    "date": "2019-05-18",
    "location": {
      "city": "Rochester",
      "state": "New York",
      "country": "USA"
    }
  },
  {
    "name": "UFC 237: Namajunas vs. Andrade",
    "date": "2019-05-11",
    "location": {
      "city": "Rio de Janeiro",
      "state": "Rio de Janeiro",
      "country": "Brazil"
    }
  },
  {
    "name": "UFC Fight Night: Iaquinta vs. Cowboy",
    "date": "2019-05-04",
    "location": {
      "city": "Ottawa",
      "state": "Ontario",
      "country": "Canada"
    }
  },
  {
    "name": "UFC Fight Night: Jacare vs. Hermansson",
    "date": "2019-04-27",
    "location": {
      "city": "Sunrise",
      "state": "Florida",
      "country": "USA"
    }
  },
  {
    "name": "UFC Fight Night: Overeem vs. Oleinik",
    "date": "2019-04-20",
    "location": {
      "city": "Saint Petersburg",
      "state": "Saint Petersburg",
      "country": "Russia"
    }
  },
  {
    "name": "UFC 236: Holloway vs. Poirier 2",
    "date": "2019-04-13",
    "location": {
      "city": "Atlanta",
      "state": "Georgia",
      "country": "USA"
    }
  },
  {
    "name": "UFC Fight Night: Barboza vs. Gaethje",
    "date": "2019-03-30",
    "location": {
      "city": "Philadelphia",
      "state": "Pennsylvania",
      "country": "USA"
    }
  },
  {
    "name": "UFC Fight Night: Thompson vs. Pettis",
    "date": "2019-03-23",
    "location": {
      "city": "Nashville",
      "state": "Tennessee",
      "country": "USA"
    }
  },
  {
    "name": "UFC Fight Night: Till vs. Masvidal",
    "date": "2019-03-16",
    "location": {
      "city": "London",
      "state": "England",
      "country": "United Kingdom"
    }
  },
  {
    "name": "UFC Fight Night: Lewis vs. Dos Santos",
    "date": "2019-03-09",
    "location": {
      "city": "Wichita",
      "state": "Kansas",
      "country": "USA"
    }
  },
  {
    "name": "UFC 235: Jones vs. Smith",
    "date": "2019-03-02",
    "location": {
      "city": "Las Vegas",
      "state": "Nevada",
      "country": "USA"
    }
  },
  {
    "name": "UFC Fight Night: Blachowicz vs. Santos",
    "date": "2019-02-23",
    "location": {
      "city": "Prague",
      "country": "Czech Republic"
    }
  },
  {
    "name": "UFC Fight Night: Ngannou vs. Velasquez",
    "date": "2019-02-17",
    "location": {
      "city": "Phoenix",
      "state": "Arizona",
      "country": "USA"
    }
  },
  {
    "name": "UFC 234: Adesanya vs. Silva",
    "date": "2019-02-09",
    "location": {
      "city": "Melbourne",
      "state": "Victoria",
      "country": "Australia"
    }
  },
  {
    "name": "UFC Fight Night: Assuncao vs. Moraes 2",
    "date": "2019-02-02",
    "location": {
      "city": "Fortaleza",
      "state": "Ceara",
      "country": "Brazil"
    }
  },
  {
    "name": "UFC Fight Night: Cejudo vs. Dillashaw",
    "date": "2019-01-19",
    "location": {
      "city": "Brooklyn",
      "state": "New York",
      "country": "USA"
    }
  },
  {
    "name": "UFC 232: Jones vs. Gustafsson 2",
    "date": "2018-12-29",
    "location": {
      "city": "Los Angeles",
      "state": "California",
      "country": "USA"
    }
  },
  {
    "name": "UFC Fight Night: Lee vs. Iaquinta",
    "date": "2018-12-15",
    "location": {
      "city": "Milwaukee",
      "state": "Wisconsin",
      "country": "USA"
    }
  },
  {
    "name": "UFC 231: Holloway vs. Ortega",
    "date": "2018-12-08",
    "location": {
      "city": "Toronto",
      "state": "Ontario",
      "country": "Canada"
    }
  },
  {
    "name": "UFC Fight Night: Dos Santos vs. Tuivasa",
    "date": "2018-12-01",
    "location": {
      "city": "Adelaide",
      "state": "South Australia",
      "country": "Australia"
    }
  },
  {
    "name": "The Ultimate Fighter: Heavy Hitters Finale",
    "date": "2018-11-30",
    "location": {
      "city": "Las Vegas",
      "state": "Nevada",
      "country": "USA"
    }
  },
  {
    "name": "UFC Fight Night: Blaydes vs. Ngannou 2",
    "date": "2018-11-24",
    "location": {
      "city": "Beijing",
      "country": "China"
    }
  },
  {
    "name": "UFC Fight Night: Magny vs. Ponzinibbio",
    "date": "2018-11-17",
    "location": {
      "city": "Buenos Aires",
      "state": "Buenos Aires",
      "country": "Argentina"
    }
  },
  {
    "name": "UFC Fight Night: Korean Zombie vs. Rodriguez",
    "date": "2018-11-10",
    "location": {
      "city": "Denver",
      "state": "Colorado",
      "country": "USA"
    }
  },
  {
    "name": "UFC 230: Cormier vs. Lewis",
    "date": "2018-11-03",
    "location": {
      "city": "New York City",
      "state": "New York",
      "country": "USA"
    }
  },
  {
    "name": "UFC Fight Night: Oezdemir vs. Smith",
    "date": "2018-10-27",
    "location": {
      "city": "Moncton",
      "state": "New Brunswick",
      "country": "Canada"
    }
  },
  {
    "name": "UFC 229: Khabib vs. McGregor",
    "date": "2018-10-06",
    "location": {
      "city": "Las Vegas",
      "state": "Nevada",
      "country": "USA"
    }
  },
  {
    "name": "UFC Fight Night: Marreta vs. Anders",
    "date": "2018-09-22",
    "location": {
      "city": "Sao Paulo",
      "state": "Sao Paulo",
      "country": "Brazil"
    }
  },
  {
    "name": "UFC Fight Night: Hunt vs. Oleinik",
    "date": "2018-09-15",
    "location": {
      "city": "Moscow",
      "state": "Moscow",
      "country": "Russia"
    }
  },
  {
    "name": "UFC 228: Woodley vs. Till",
    "date": "2018-09-08",
    "location": {
      "city": "Dallas",
      "state": "Texas",
      "country": "USA"
    }
  },
  {
    "name": "UFC Fight Night: Gaethje vs. Vick",
    "date": "2018-08-25",
    "location": {
      "city": "Lincoln",
      "state": "Nebraska",
      "country": "USA"
    }
  },
  {
    "name": "UFC 227: Dillashaw vs. Garbrandt 2",
    "date": "2018-08-04",
    "location": {
      "city": "Los Angeles",
      "state": "California",
      "country": "USA"
    }
  },
  {
    "name": "UFC Fight Night: Alvarez vs. Poirier 2",
    "date": "2018-07-28",
    "location": {
      "city": "Calgary",
      "state": "Alberta",
      "country": "Canada"
    }
  },
  {
    "name": "UFC Fight Night: Shogun vs. Smith",
    "date": "2018-07-22",
    "location": {
      "city": "Hamburg",
      "state": "Hamburg",
      "country": "Germany"
    }
  },
  {
    "name": "UFC Fight Night: Dos Santos vs. Ivanov",
    "date": "2018-07-14",
    "location": {
      "city": "Boise",
      "state": "Idaho",
      "country": "USA"
    }
  },
  {
    "name": "UFC 226: Miocic vs. Cormier",
    "date": "2018-07-07",
    "location": {
      "city": "Las Vegas",
      "state": "Nevada",
      "country": "USA"
    }
  },
  {
    "name": "The Ultimate Fighter: Undefeated Finale",
    "date": "2018-07-06",
    "location": {
      "city": "Las Vegas",
      "state": "Nevada",
      "country": "USA"
    }
  },
  {
    "name": "UFC Fight Night: Cowboy vs. Edwards",
    "date": "2018-06-23",
    "location": {
      "city": "Kallang",
      "country": "Singapore"
    }
  },
  {
    "name": "UFC 225: Whittaker vs. Romero 2",
    "date": "2018-06-09",
    "location": {
      "city": "Chicago",
      "state": "Illinois",
      "country": "USA"
    }
  },
  {
    "name": "UFC Fight Night: Rivera vs. Moraes",
    "date": "2018-06-01",
    "location": {
      "city": "Utica",
      "state": "New York",
      "country": "USA"
    }
  },
  {
    "name": "UFC Fight Night: Thompson vs. Till",
    "date": "2018-05-27",
    "location": {
      "city": "Liverpool",
      "state": "England",
      "country": "United Kingdom"
    }
  },
  {
    "name": "UFC Fight Night: Maia vs. Usman",
    "date": "2018-05-19",
    "location": {
      "city": "Santiago",
      "country": "Chile"
    }
  },
  {
    "name": "UFC 224: Nunes vs. Pennington",
    "date": "2018-05-12",
    "location": {
      "city": "Rio de Janeiro",
      "state": "Rio de Janeiro",
      "country": "Brazil"
    }
  },
  {
    "name": "UFC Fight Night: Barboza vs. Lee",
    "date": "2018-04-21",
    "location": {
      "city": "Atlantic City",
      "state": "New Jersey",
      "country": "USA"
    }
  },
  {
    "name": "UFC Fight Night: Poirier vs. Gaethje",
    "date": "2018-04-14",
    "location": {
      "city": "Glendale",
      "state": "Arizona",
      "country": "USA"
    }
  },
  {
    "name": "UFC 223: Khabib vs. Iaquinta",
    "date": "2018-04-07",
    "location": {
      "city": "Brooklyn",
      "state": "New York",
      "country": "USA"
    }
  },
  {
    "name": "UFC Fight Night: Werdum vs. Volkov",
    "date": "2018-03-17",
    "location": {
      "city": "London",
      "state": "England",
      "country": "United Kingdom"
    }
  },
  {
    "name": "UFC 222: Cyborg vs. Kunitskaya",
    "date": "2018-03-03",
    "location": {
      "city": "Las Vegas",
      "state": "Nevada",
      "country": "USA"
    }
  },
  {
    "name": "UFC Fight Night: Emmett vs. Stephens",
    "date": "2018-02-24",
    "location": {
      "city": "Orlando",
      "state": "Florida",
      "country": "USA"
    }
  },
  {
    "name": "UFC Fight Night: Cerrone vs. Medeiros",
    "date": "2018-02-18",
    "location": {
      "city": "Austin",
      "state": "Texas",
      "country": "USA"
    }
  },
  {
    "name": "UFC 221: Romero vs. Rockhold",
    "date": "2018-02-10",
    "location": {
      "city": "Perth",
      "state": "Western Australia",
      "country": "Australia"
    }
  },
  {
    "name": "UFC Fight Night: Machida vs. Anders",
    "date": "2018-02-03",
    "location": {
      "city": "Belem",
      "state": "Para",
      "country": "Brazil"
    }
  },
  {
    "name": "UFC Fight Night: Jacare vs. Brunson 2",
    "date": "2018-01-27",
    "location": {
      "city": "Charlotte",
      "state": "North Carolina",
      "country": "USA"
    }
  },
  {
    "name": "UFC 220: Miocic vs. Ngannou",
    "date": "2018-01-20",
    "location": {
      "city": "Boston",
      "state": "Massachusetts",
      "country": "USA"
    }
  },
  {
    "name": "UFC Fight Night: Stephens vs. Choi",
    "date": "2018-01-14",
    "location": {
      "city": "St. Louis",
      "state": "Missouri",
      "country": "USA"
    }
  },
  {
    "name": "UFC 219: Cyborg vs. Holm",
    "date": "2017-12-30",
    "location": {
      "city": "Las Vegas",
      "state": "Nevada",
      "country": "USA"
    }
  },
  {
    "name": "UFC Fight Night: Lawler vs. Dos Anjos",
    "date": "2017-12-16",
    "location": {
      "city": "Winnipeg",
      "state": "Manitoba",
      "country": "Canada"
    }
  },
  {
    "name": "UFC Fight Night: Swanson vs. Ortega",
    "date": "2017-12-09",
    "location": {
      "city": "Fresno",
      "state": "California",
      "country": "USA"
    }
  },
  {
    "name": "UFC 218: Holloway vs. Aldo 2",
    "date": "2017-12-02",
    "location": {
      "city": "Detroit",
      "state": "Michigan",
      "country": "USA"
    }
  },
  {
    "name": "The Ultimate Fighter: A New World Champion Finale",
    "date": "2017-12-01",
    "location": {
      "city": "Las Vegas",
      "state": "Nevada",
      "country": "USA"
    }
  },
  {
    "name": "UFC Fight Night: Bisping vs. Gastelum",
    "date": "2017-11-25",
    "location": {
      "city": "Shanghai",
      "state": "Hebei",
      "country": "China"
    }
  },
  {
    "name": "UFC Fight Night: Werdum vs. Tybura",
    "date": "2017-11-18",
    "location": {
      "city": "Sydney",
      "state": "New South Wales",
      "country": "Australia"
    }
  },
  {
    "name": "UFC Fight Night: Poirier vs. Pettis",
    "date": "2017-11-11",
    "location": {
      "city": "Norfolk",
      "state": "Virginia",
      "country": "USA"
    }
  },
  {
    "name": "UFC 217: Bisping vs. St-Pierre",
    "date": "2017-11-04",
    "location": {
      "city": "New York City",
      "state": "New York",
      "country": "USA"
    }
  },
  {
    "name": "UFC Fight Night: Brunson vs. Machida",
    "date": "2017-10-28",
    "location": {
      "city": "Sao Paulo",
      "state": "Sao Paulo",
      "country": "Brazil"
    }
  },
  {
    "name": "UFC Fight Night: Cerrone vs. Till",
    "date": "2017-10-21",
    "location": {
      "city": "Gdansk",
      "country": "Poland"
    }
  },
  {
    "name": "UFC 216: Ferguson vs. Lee",
    "date": "2017-10-07",
    "location": {
      "city": "Las Vegas",
      "state": "Nevada",
      "country": "USA"
    }
  },
  {
    "name": "UFC Fight Night: Saint Preux vs. Okami",
    "date": "2017-09-22",
    "location": {
      "city": "Saitama",
      "state": "Saitama",
      "country": "Japan"
    }
  },
  {
    "name": "UFC Fight Night: Rockhold vs. Branch",
    "date": "2017-09-16",
    "location": {
      "city": "Pittsburgh",
      "state": "Pennsylvania",
      "country": "USA"
    }
  },
  {
    "name": "UFC 215: Nunes vs Shevchenko 2",
    "date": "2017-09-09",
    "location": {
      "city": "Edmonton",
      "state": "Alberta",
      "country": "Canada"
    }
  },
  {
    "name": "UFC Fight Night: Volkov vs. Struve",
    "date": "2017-09-02",
    "location": {
      "city": "Rotterdam",
      "state": "Zuid-Holland",
      "country": "Netherlands"
    }
  },
  {
    "name": "UFC Fight Night: Pettis vs. Moreno",
    "date": "2017-08-05",
    "location": {
      "city": "Mexico City",
      "state": "Distrito Federal",
      "country": "Mexico"
    }
  },
  {
    "name": "UFC 214: Cormier vs. Jones 2",
    "date": "2017-07-29",
    "location": {
      "city": "Anaheim",
      "state": "California",
      "country": "USA"
    }
  },
  {
    "name": "UFC Fight Night: Weidman vs. Gastelum",
    "date": "2017-07-22",
    "location": {
      "city": "Uniondale",
      "state": "New York",
      "country": "USA"
    }
  },
  {
    "name": "UFC Fight Night: Nelson vs. Ponzinibbio",
    "date": "2017-07-16",
    "location": {
      "city": "Glasgow",
      "state": "Scotland",
      "country": "United Kingdom"
    }
  },
  {
    "name": "UFC 213: Romero vs. Whittaker",
    "date": "2017-07-08",
    "location": {
      "city": "Las Vegas",
      "state": "Nevada",
      "country": "USA"
    }
  },
  {
    "name": "The Ultimate Fighter: Redemption Finale",
    "date": "2017-07-07",
    "location": {
      "city": "Las Vegas",
      "state": "Nevada",
      "country": "USA"
    }
  },
  {
    "name": "UFC Fight Night: Chiesa vs. Lee",
    "date": "2017-06-25",
    "location": {
      "city": "Oklahoma City",
      "state": "Oklahoma",
      "country": "USA"
    }
  },
  {
    "name": "UFC Fight Night: Holm vs. Correia",
    "date": "2017-06-17",
    "location": {
      "city": "Kallang",
      "country": "Singapore"
    }
  },
  {
    "name": "UFC Fight Night: Lewis vs. Hunt",
    "date": "2017-06-10",
    "location": {
      "city": "Auckland",
      "country": "New Zealand"
    }
  },
  {
    "name": "UFC 212: Aldo vs. Holloway",
    "date": "2017-06-03",
    "location": {
      "city": "Rio de Janeiro",
      "state": "Rio de Janeiro",
      "country": "Brazil"
    }
  },
  {
    "name": "UFC Fight Night: Gustafsson vs. Teixeira",
    "date": "2017-05-28",
    "location": {
      "city": "Stockholm",
      "country": "Sweden"
    }
  },
  {
    "name": "UFC 211: Miocic vs. Dos Santos",
    "date": "2017-05-13",
    "location": {
      "city": "Dallas",
      "state": "Texas",
      "country": "USA"
    }
  },
  {
    "name": "UFC Fight Night: Swanson vs. Lobov",
    "date": "2017-04-22",
    "location": {
      "city": "Nashville",
      "state": "Tennessee",
      "country": "USA"
    }
  },
  {
    "name": "UFC on FOX: Johnson vs. Reis",
    "date": "2017-04-15",
    "location": {
      "city": "Kansas City",
      "state": "Missouri",
      "country": "USA"
    }
  },
  {
    "name": "UFC 210: Cormier vs. Johnson 2",
    "date": "2017-04-08",
    "location": {
      "city": "Buffalo",
      "state": "New York",
      "country": "USA"
    }
  },
  {
    "name": "UFC Fight Night: Manuwa vs. Anderson",
    "date": "2017-03-18",
    "location": {
      "city": "London",
      "state": "England",
      "country": "United Kingdom"
    }
  },
  {
    "name": "UFC Fight Night: Belfort vs. Gastelum",
    "date": "2017-03-11",
    "location": {
      "city": "Fortaleza",
      "state": "Ceara",
      "country": "Brazil"
    }
  },
  {
    "name": "UFC 209: Woodley vs. Thompson 2",
    "date": "2017-03-04",
    "location": {
      "city": "Las Vegas",
      "state": "Nevada",
      "country": "USA"
    }
  },
  {
    "name": "UFC Fight Night: Lewis vs. Browne",
    "date": "2017-02-19",
    "location": {
      "city": "Halifax",
      "state": "Nova Scotia",
      "country": "Canada"
    }
  },
  {
    "name": "UFC 208: Holm vs. De Randamie",
    "date": "2017-02-11",
    "location": {
      "city": "Brooklyn",
      "state": "New York",
      "country": "USA"
    }
  },
  {
    "name": "UFC Fight Night: Bermudez vs. The Korean Zombie",
    "date": "2017-02-04",
    "location": {
      "city": "Houston",
      "state": "Texas",
      "country": "USA"
    }
  },
  {
    "name": "UFC on FOX: Shevchenko vs. Pena",
    "date": "2017-01-28",
    "location": {
      "city": "Denver",
      "state": "Colorado",
      "country": "USA"
    }
  },
  {
    "name": "UFC Fight Night: Rodriguez vs. Penn",
    "date": "2017-01-15",
    "location": {
      "city": "Phoenix",
      "state": "Arizona",
      "country": "USA"
    }
  },
  {
    "name": "UFC 207: Nunes vs. Rousey",
    "date": "2016-12-30",
    "location": {
      "city": "Las Vegas",
      "state": "Nevada",
      "country": "USA"
    }
  },
  {
    "name": "UFC on FOX: VanZant vs. Waterson",
    "date": "2016-12-17",
    "location": {
      "city": "Sacramento",
      "state": "California",
      "country": "USA"
    }
  },
  {
    "name": "UFC 206: Holloway vs. Pettis",
    "date": "2016-12-10",
    "location": {
      "city": "Toronto",
      "state": "Ontario",
      "country": "Canada"
    }
  },
  {
    "name": "UFC Fight Night: Lewis vs. Abdurakhimov",
    "date": "2016-12-09",
    "location": {
      "city": "Albany",
      "state": "New York",
      "country": "USA"
    }
  },
  {
    "name": "The Ultimate Fighter: Tournament of Champions Finale",
    "date": "2016-12-03",
    "location": {
      "city": "Las Vegas",
      "state": "Nevada",
      "country": "USA"
    }
  },
  {
    "name": "UFC Fight Night: Whittaker vs. Brunson",
    "date": "2016-11-26",
    "location": {
      "city": "Melbourne",
      "state": "Victoria",
      "country": "Australia"
    }
  },
  {
    "name": "UFC Fight Night: Bader vs. Nogueira",
    "date": "2016-11-19",
    "location": {
      "city": "Sao Paulo",
      "state": "Sao Paulo",
      "country": "Brazil"
    }
  },
  {
    "name": "UFC Fight Night: Mousasi vs. Hall 2",
    "date": "2016-11-19",
    "location": {
      "city": "Belfast",
      "state": "Northern Ireland",
      "country": "United Kingdom"
    }
  },
  {
    "name": "UFC 205: Alvarez vs McGregor",
    "date": "2016-11-12",
    "location": {
      "city": "New York City",
      "state": "New York",
      "country": "USA"
    }
  },
  {
    "name": "UFC Fight Night: Dos Anjos vs. Ferguson",
    "date": "2016-11-05",
    "location": {
      "city": "Mexico City",
      "state": "Distrito Federal",
      "country": "Mexico"
    }
  },
  {
    "name": "UFC 204: Bisping vs. Henderson",
    "date": "2016-10-08",
    "location": {
      "city": "Manchester",
      "state": "England",
      "country": "United Kingdom"
    }
  },
  {
    "name": "UFC Fight Night: Lineker vs. Dodson",
    "date": "2016-10-01",
    "location": {
      "city": "Portland",
      "state": "Oregon",
      "country": "USA"
    }
  },
  {
    "name": "UFC Fight Night: Cyborg vs. Lansberg",
    "date": "2016-09-24",
    "location": {
      "city": "Brasilia",
      "state": "Distrito Federal",
      "country": "Brazil"
    }
  },
  {
    "name": "UFC Fight Night: Poirier vs. Johnson",
    "date": "2016-09-17",
    "location": {
      "city": "Hidalgo",
      "state": "Texas",
      "country": "USA"
    }
  },
  {
    "name": "UFC 203: Miocic vs. Overeem",
    "date": "2016-09-10",
    "location": {
      "city": "Cleveland",
      "state": "Ohio",
      "country": "USA"
    }
  },
  {
    "name": "UFC Fight Night: Arlovski vs. Barnett",
    "date": "2016-09-03",
    "location": {
      "city": "Hamburg",
      "state": "Hamburg",
      "country": "Germany"
    }
  },
  {
    "name": "UFC on FOX: Maia vs. Condit",
    "date": "2016-08-27",
    "location": {
      "city": "Vancouver",
      "state": "British Columbia",
      "country": "Canada"
    }
  },
  {
    "name": "UFC 202: Diaz vs. McGregor 2",
    "date": "2016-08-20",
    "location": {
      "city": "Las Vegas",
      "state": "Nevada",
      "country": "USA"
    }
  },
  {
    "name": "UFC Fight Night: Rodriguez vs. Caceres",
    "date": "2016-08-06",
    "location": {
      "city": "Salt Lake City",
      "state": "Utah",
      "country": "USA"
    }
  },
  {
    "name": "UFC 201: Lawler vs. Woodley",
    "date": "2016-07-30",
    "location": {
      "city": "Atlanta",
      "state": "Georgia",
      "country": "USA"
    }
  },
  {
    "name": "UFC on FOX: Holm vs. Shevchenko",
    "date": "2016-07-23",
    "location": {
      "city": "Chicago",
      "state": "Illinois",
      "country": "USA"
    }
  },
  {
    "name": "UFC Fight Night: McDonald vs. Lineker",
    "date": "2016-07-13",
    "location": {
      "city": "Sioux Falls",
      "state": "South Dakota",
      "country": "USA"
    }
  },
  {
    "name": "UFC 200: Tate vs Nunes",
    "date": "2016-07-09",
    "location": {
      "city": "Las Vegas",
      "state": "Nevada",
      "country": "USA"
    }
  },
  {
    "name": "The Ultimate Fighter: Team Joanna vs. Team Cl\u00e1udia Finale",
    "date": "2016-07-08",
    "location": {
      "city": "Las Vegas",
      "state": "Nevada",
      "country": "USA"
    }
  },
  {
    "name": "UFC Fight Night: Dos Anjos vs. Alvarez",
    "date": "2016-07-07",
    "location": {
      "city": "Las Vegas",
      "state": "Nevada",
      "country": "USA"
    }
  },
  {
    "name": "UFC Fight Night: MacDonald vs Thompson",
    "date": "2016-06-18",
    "location": {
      "city": "Ottawa",
      "state": "Ontario",
      "country": "Canada"
    }
  },
  {
    "name": "UFC 199: Rockhold vs. Bisping 2",
    "date": "2016-06-04",
    "location": {
      "city": "Los Angeles",
      "state": "California",
      "country": "USA"
    }
  },
  {
    "name": "UFC Fight Night: Almeida vs Garbrandt",
    "date": "2016-05-29",
    "location": {
      "city": "Las Vegas",
      "state": "Nevada",
      "country": "USA"
    }
  },
  {
    "name": "UFC 198: Werdum vs Miocic",
    "date": "2016-05-14",
    "location": {
      "city": "Curitiba",
      "state": "Parana",
      "country": "Brazil"
    }
  },
  {
    "name": "UFC Fight Night: Overeem vs Arlovski",
    "date": "2016-05-08",
    "location": {
      "city": "Rotterdam",
      "state": "Zuid-Holland",
      "country": "Netherlands"
    }
  },
  {
    "name": "UFC 197: Jones vs Saint Preux",
    "date": "2016-04-23",
    "location": {
      "city": "Las Vegas",
      "state": "Nevada",
      "country": "USA"
    }
  },
  {
    "name": "UFC on FOX: Teixeira vs Evans",
    "date": "2016-04-16",
    "location": {
      "city": "Tampa",
      "state": "Florida",
      "country": "USA"
    }
  },
  {
    "name": "UFC Fight Night: Rothwell vs Dos Santos",
    "date": "2016-04-10",
    "location": {
      "city": "Zagreb",
      "country": "Croatia"
    }
  },
  {
    "name": "UFC Fight Night: Hunt vs Mir",
    "date": "2016-03-19",
    "location": {
      "city": "Brisbane",
      "state": "Queensland",
      "country": "Australia"
    }
  },
  {
    "name": "UFC 196: McGregor vs Diaz",
    "date": "2016-03-05",
    "location": {
      "city": "Las Vegas",
      "state": "Nevada",
      "country": "USA"
    }
  },
  {
    "name": "UFC Fight Night: Silva vs Bisping",
    "date": "2016-02-27",
    "location": {
      "city": "London",
      "state": "England",
      "country": "United Kingdom"
    }
  },
  {
    "name": "UFC Fight Night: Cowboy vs Cowboy",
    "date": "2016-02-21",
    "location": {
      "city": "Pittsburgh",
      "state": "Pennsylvania",
      "country": "USA"
    }
  },
  {
    "name": "UFC Fight Night: Hendricks vs Thompson",
    "date": "2016-02-06",
    "location": {
      "city": "Las Vegas",
      "state": "Nevada",
      "country": "USA"
    }
  },
  {
    "name": "UFC on FOX: Johnson vs. Bader",
    "date": "2016-01-30",
    "location": {
      "city": "Newark",
      "state": "New Jersey",
      "country": "USA"
    }
  },
  {
    "name": "UFC Fight Night: Dillashaw vs Cruz",
    "date": "2016-01-17",
    "location": {
      "city": "Boston",
      "state": "Massachusetts",
      "country": "USA"
    }
  },
  {
    "name": "UFC 195: Lawler vs Condit",
    "date": "2016-01-02",
    "location": {
      "city": "Las Vegas",
      "state": "Nevada",
      "country": "USA"
    }
  },
  {
    "name": "UFC on FOX: Dos Anjos vs. Cowboy 2",
    "date": "2015-12-19",
    "location": {
      "city": "Orlando",
      "state": "Florida",
      "country": "USA"
    }
  },
  {
    "name": "UFC 194: Aldo vs McGregor",
    "date": "2015-12-12",
    "location": {
      "city": "Las Vegas",
      "state": "Nevada",
      "country": "USA"
    }
  },
  {
    "name": "The Ultimate Fighter: Team McGregor vs. Team Faber Finale",
    "date": "2015-12-11",
    "location": {
      "city": "Las Vegas",
      "state": "Nevada",
      "country": "USA"
    }
  },
  {
    "name": "UFC Fight Night: Namajunas vs. VanZant",
    "date": "2015-12-10",
    "location": {
      "city": "Las Vegas",
      "state": "Nevada",
      "country": "USA"
    }
  },
  {
    "name": "UFC Fight Night: Henderson vs Masvidal",
    "date": "2015-11-28",
    "location": {
      "city": "Seoul",
      "country": "South Korea"
    }
  },
  {
    "name": "UFC Fight Night: Magny vs Gastelum",
    "date": "2015-11-21",
    "location": {
      "city": "Monterrey",
      "state": "Nuevo Leon",
      "country": "Mexico"
    }
  },
  {
    "name": "UFC 193: Rousey vs Holm",
    "date": "2015-11-14",
    "location": {
      "city": "Melbourne",
      "state": "Victoria",
      "country": "Australia"
    }
  },
  {
    "name": "UFC Fight Night: Belfort vs Henderson 3",
    "date": "2015-11-07",
    "location": {
      "city": "Sao Paulo",
      "state": "Sao Paulo",
      "country": "Brazil"
    }
  },
  {
    "name": "UFC Fight Night: Holohan vs Smolka",
    "date": "2015-10-24",
    "location": {
      "city": "Dublin",
      "state": "Leinster",
      "country": "Ireland"
    }
  },
  {
    "name": "UFC 192: Cormier vs Gustafsson",
    "date": "2015-10-03",
    "location": {
      "city": "Houston",
      "state": "Texas",
      "country": "USA"
    }
  },
  {
    "name": "UFC Fight Night: Barnett vs Nelson",
    "date": "2015-09-26",
    "location": {
      "city": "Saitama",
      "country": "Japan"
    }
  },
  {
    "name": "UFC 191: Johnson vs Dodson 2",
    "date": "2015-09-05",
    "location": {
      "city": "Las Vegas",
      "state": "Nevada",
      "country": "USA"
    }
  },
  {
    "name": "UFC Fight Night: Holloway vs Oliveira",
    "date": "2015-08-23",
    "location": {
      "city": "Saskatoon",
      "state": "Saskatchewan",
      "country": "Canada"
    }
  },
  {
    "name": "UFC Fight Night: Teixeira vs Saint Preux",
    "date": "2015-08-08",
    "location": {
      "city": "Nashville",
      "state": "Tennessee",
      "country": "USA"
    }
  },
  {
    "name": "UFC 190: Rousey vs Correia",
    "date": "2015-08-01",
    "location": {
      "city": "Rio de Janeiro",
      "state": "Rio de Janeiro",
      "country": "Brazil"
    }
  },
  {
    "name": "UFC on FOX: Dillashaw vs. Barao II",
    "date": "2015-07-25",
    "location": {
      "city": "Chicago",
      "state": "Illinois",
      "country": "USA"
    }
  },
  {
    "name": "UFC Fight Night: Bisping vs Leites",
    "date": "2015-07-18",
    "location": {
      "city": "Glasgow",
      "state": "Scotland",
      "country": "United Kingdom"
    }
  },
  {
    "name": "UFC Fight Night: Mir vs Duffee",
    "date": "2015-07-15",
    "location": {
      "city": "San Diego",
      "state": "California",
      "country": "USA"
    }
  },
  {
    "name": "The Ultimate Fighter: American Top Team vs. Blackzilians Finale",
    "date": "2015-07-12",
    "location": {
      "city": "Las Vegas",
      "state": "Nevada",
      "country": "USA"
    }
  },
  {
    "name": "UFC 189: Mendes vs McGregor",
    "date": "2015-07-11",
    "location": {
      "city": "Las Vegas",
      "state": "Nevada",
      "country": "USA"
    }
  },
  {
    "name": "UFC Fight Night: Machida vs Romero",
    "date": "2015-06-27",
    "location": {
      "city": "Hollywood",
      "state": "Florida",
      "country": "USA"
    }
  },
  {
    "name": "UFC Fight Night: Jedrzejczyk vs Penne",
    "date": "2015-06-20",
    "location": {
      "city": "Berlin",
      "state": "Berlin",
      "country": "Germany"
    }
  },
  {
    "name": "UFC 188: Velasquez vs Werdum",
    "date": "2015-06-13",
    "location": {
      "city": "Mexico City",
      "state": "Distrito Federal",
      "country": "Mexico"
    }
  },
  {
    "name": "UFC Fight Night: Boetsch vs Henderson",
    "date": "2015-06-06",
    "location": {
      "city": "New Orleans",
      "state": "Louisiana",
      "country": "USA"
    }
  },
  {
    "name": "UFC Fight Night: Condit vs Alves",
    "date": "2015-05-30",
    "location": {
      "city": "Goiania",
      "state": "Goias",
      "country": "Brazil"
    }
  },
  {
    "name": "UFC 187: Johnson vs Cormier",
    "date": "2015-05-23",
    "location": {
      "city": "Las Vegas",
      "state": "Nevada",
      "country": "USA"
    }
  },
  {
    "name": "UFC Fight Night: Edgar vs Faber",
    "date": "2015-05-16",
    "location": {
      "city": "Manila",
      "country": "Philippines"
    }
  },
  {
    "name": "UFC Fight Night: Miocic vs Hunt",
    "date": "2015-05-09",
    "location": {
      "city": "Adelaide",
      "state": "South Australia",
      "country": "Australia"
    }
  },
  {
    "name": "UFC 186: Johnson vs Horiguchi",
    "date": "2015-04-25",
    "location": {
      "city": "Montreal",
      "state": "Quebec",
      "country": "Canada"
    }
  },
  {
    "name": "UFC on FOX: Machida vs Rockhold",
    "date": "2015-04-18",
    "location": {
      "city": "Newark",
      "state": "New Jersey",
      "country": "USA"
    }
  },
  {
    "name": "UFC Fight Night: Gonzaga vs Cro Cop 2",
    "date": "2015-04-11",
    "location": {
      "city": "Krakow",
      "country": "Poland"
    }
  },
  {
    "name": "UFC Fight Night: Mendes vs Lamas",
    "date": "2015-04-04",
    "location": {
      "city": "Fairfax",
      "state": "Virginia",
      "country": "USA"
    }
  },
  {
    "name": "UFC Fight Night: Maia vs LaFlare",
    "date": "2015-03-21",
    "location": {
      "city": "Rio de Janeiro",
      "country": "Brazil"
    }
  },
  {
    "name": "UFC 185: Pettis vs Dos Anjos",
    "date": "2015-03-14",
    "location": {
      "city": "Dallas",
      "state": "Texas",
      "country": "USA"
    }
  },
  {
    "name": "UFC 184: Rousey vs Zingano",
    "date": "2015-02-28",
    "location": {
      "city": "Los Angeles",
      "state": "California",
      "country": "USA"
    }
  },
  {
    "name": "UFC Fight Night: Bigfoot vs Mir",
    "date": "2015-02-22",
    "location": {
      "city": "Porto Alegre",
      "state": "Rio Grande do Sul",
      "country": "Brazil"
    }
  },
  {
    "name": "UFC Fight Night: Henderson vs Thatch",
    "date": "2015-02-14",
    "location": {
      "city": "Broomfield",
      "state": "Colorado",
      "country": "USA"
    }
  },
  {
    "name": "UFC 183: Silva vs Diaz",
    "date": "2015-01-31",
    "location": {
      "city": "Las Vegas",
      "state": "Nevada",
      "country": "USA"
    }
  },
  {
    "name": "UFC on FOX: Gustafsson vs Johnson",
    "date": "2015-01-24",
    "location": {
      "city": "Stockholm",
      "country": "Sweden"
    }
  },
  {
    "name": "UFC Fight Night: McGregor vs Siver",
    "date": "2015-01-18",
    "location": {
      "city": "Boston",
      "state": "Massachusetts",
      "country": "USA"
    }
  },
  {
    "name": "UFC 182: Jones vs Cormier",
    "date": "2015-01-03",
    "location": {
      "city": "Las Vegas",
      "state": "Nevada",
      "country": "USA"
    }
  },
  {
    "name": "UFC Fight Night: Machida vs Dollaway",
    "date": "2014-12-20",
    "location": {
      "city": "Barueri",
      "state": "Sao Paulo",
      "country": "Brazil"
    }
  },
  {
    "name": "UFC on FOX: Dos Santos vs Miocic",
    "date": "2014-12-13",
    "location": {
      "city": "Phoenix",
      "state": "Arizona",
      "country": "USA"
    }
  },
  {
    "name": "The Ultimate Fighter: A Champion Will Be Crowned Finale",
    "date": "2014-12-12",
    "location": {
      "city": "Las Vegas",
      "state": "Nevada",
      "country": "USA"
    }
  },
  {
    "name": "UFC 181: Hendricks vs Lawler II",
    "date": "2014-12-06",
    "location": {
      "city": "Las Vegas",
      "state": "Nevada",
      "country": "USA"
    }
  },
  {
    "name": "UFC Fight Night: Edgar vs Swanson",
    "date": "2014-11-22",
    "location": {
      "city": "Austin",
      "state": "Texas",
      "country": "USA"
    }
  },
  {
    "name": "UFC 180: Werdum vs Hunt",
    "date": "2014-11-15",
    "location": {
      "city": "Mexico City",
      "state": "Distrito Federal",
      "country": "Mexico"
    }
  },
  {
    "name": "UFC Fight Night 56: Shogun vs Saint Preux",
    "date": "2014-11-08",
    "location": {
      "city": "Uberlandia",
      "state": "Minas Gerais",
      "country": "Brazil"
    }
  },
  {
    "name": "UFC Fight Night: Rockhold vs Bisping",
    "date": "2014-11-07",
    "location": {
      "city": "Sydney",
      "state": "New South Wales",
      "country": "Australia"
    }
  },
  {
    "name": "UFC 179: Aldo vs Mendes 2",
    "date": "2014-10-25",
    "location": {
      "city": "Rio de Janeiro",
      "country": "Brazil"
    }
  },
  {
    "name": "UFC Fight Night: MacDonald vs Saffiedine",
    "date": "2014-10-04",
    "location": {
      "city": "Halifax",
      "state": "Nova Scotia",
      "country": "Canada"
    }
  },
  {
    "name": "UFC Fight Night: Nelson vs Story",
    "date": "2014-10-04",
    "location": {
      "city": "Stockholm",
      "country": "Sweden"
    }
  },
  {
    "name": "UFC 178: Johnson vs Cariaso",
    "date": "2014-09-27",
    "location": {
      "city": "Las Vegas",
      "state": "Nevada",
      "country": "USA"
    }
  },
  {
    "name": "UFC Fight Night: Hunt vs Nelson",
    "date": "2014-09-20",
    "location": {
      "city": "Saitama",
      "country": "Japan"
    }
  },
  {
    "name": "UFC Fight Night: Bigfoot vs Arlovski",
    "date": "2014-09-13",
    "location": {
      "city": "Brasilia",
      "state": "Distrito Federal",
      "country": "Brazil"
    }
  },
  {
    "name": "UFC Fight Night: Jacare vs Mousasi",
    "date": "2014-09-05",
    "location": {
      "city": "Ledyard",
      "state": "Connecticut",
      "country": "USA"
    }
  },
  {
    "name": "UFC 177: Dillashaw vs Soto",
    "date": "2014-08-30",
    "location": {
      "city": "Sacramento",
      "state": "California",
      "country": "USA"
    }
  },
  {
    "name": "UFC Fight Night: Henderson vs Dos Anjos",
    "date": "2014-08-23",
    "location": {
      "city": "Tulsa",
      "state": "Oklahoma",
      "country": "USA"
    }
  },
  {
    "name": "UFC Fight Night: Bisping vs Le",
    "date": "2014-08-23",
    "location": {
      "city": "Macau",
      "country": "China"
    }
  },
  {
    "name": "UFC Fight Night: Bader vs Saint Preux",
    "date": "2014-08-16",
    "location": {
      "city": "Bangor",
      "state": "Maine",
      "country": "USA"
    }
  },
  {
    "name": "UFC on FOX: Lawler vs Brown",
    "date": "2014-07-26",
    "location": {
      "city": "San Jose",
      "state": "California",
      "country": "USA"
    }
  },
  {
    "name": "UFC Fight Night: McGregor vs Brandao",
    "date": "2014-07-19",
    "location": {
      "city": "Dublin",
      "state": "Leinster",
      "country": "Ireland"
    }
  },
  {
    "name": "UFC Fight Night: Cowboy vs Miller",
    "date": "2014-07-16",
    "location": {
      "city": "Atlantic City",
      "state": "New Jersey",
      "country": "USA"
    }
  },
  {
    "name": "The Ultimate Fighter: Team Edgar vs. Team Penn Finale",
    "date": "2014-07-06",
    "location": {
      "city": "Las Vegas",
      "state": "Nevada",
      "country": "USA"
    }
  },
  {
    "name": "UFC 175: Weidman vs Machida",
    "date": "2014-07-05",
    "location": {
      "city": "Las Vegas",
      "state": "Nevada",
      "country": "USA"
    }
  },
  {
    "name": "UFC Fight Night: Swanson vs Stephens",
    "date": "2014-06-28",
    "location": {
      "city": "San Antonio",
      "state": "Texas",
      "country": "USA"
    }
  },
  {
    "name": "UFC Fight Night: Te Huna vs Marquardt",
    "date": "2014-06-28",
    "location": {
      "city": "Auckland",
      "country": "New Zealand"
    }
  },
  {
    "name": "UFC 174: Johnson vs Bagautinov",
    "date": "2014-06-14",
    "location": {
      "city": "Vancouver",
      "state": "British Columbia",
      "country": "Canada"
    }
  },
  {
    "name": "UFC Fight Night: Henderson vs Khabilov",
    "date": "2014-06-07",
    "location": {
      "city": "Albuquerque",
      "state": "New Mexico",
      "country": "USA"
    }
  },
  {
    "name": "UFC Fight Night: Miocic vs Maldonado",
    "date": "2014-05-31",
    "location": {
      "city": "Sao Paulo",
      "country": "Brazil"
    }
  },
  {
    "name": "UFC Fight Night: Munoz vs Mousasi",
    "date": "2014-05-31",
    "location": {
      "city": "Berlin",
      "country": "Germany"
    }
  },
  {
    "name": "UFC 173: Barao vs Dillashaw",
    "date": "2014-05-24",
    "location": {
      "city": "Las Vegas",
      "state": "Nevada",
      "country": "USA"
    }
  },
  {
    "name": "UFC Fight Night: Brown vs Silva",
    "date": "2014-05-10",
    "location": {
      "city": "Cincinnati",
      "state": "Ohio",
      "country": "USA"
    }
  },
  {
    "name": "UFC 172: Jones vs Teixeira",
    "date": "2014-04-26",
    "location": {
      "city": "Baltimore",
      "state": "Maryland",
      "country": "USA"
    }
  },
  {
    "name": "UFC on FOX: Werdum vs Browne",
    "date": "2014-04-19",
    "location": {
      "city": "Orlando",
      "state": "Florida",
      "country": "USA"
    }
  },
  {
    "name": "UFC Fight Night: Bisping vs Kennedy",
    "date": "2014-04-16",
    "location": {
      "city": "Quebec City",
      "state": "Quebec",
      "country": "Canada"
    }
  },
  {
    "name": "UFC Fight Night: Minotauro vs Nelson",
    "date": "2014-04-11",
    "location": {
      "city": "Abu Dhabi",
      "country": "United Arab Emirates"
    }
  },
  {
    "name": "UFC Fight Night: Shogun vs Henderson 2",
    "date": "2014-03-23",
    "location": {
      "city": "Natal",
      "state": "Rio Grande do Norte",
      "country": "Brazil"
    }
  },
  {
    "name": "UFC 171: Hendricks vs Lawler",
    "date": "2014-03-15",
    "location": {
      "city": "Dallas",
      "state": "Texas",
      "country": "USA"
    }
  },
  {
    "name": "UFC Fight Night: Gustafsson vs Manuwa",
    "date": "2014-03-08",
    "location": {
      "city": "London",
      "state": "England",
      "country": "United Kingdom"
    }
  },
  {
    "name": "UFC Fight Night: Kim vs Hathaway",
    "date": "2014-03-01",
    "location": {
      "city": "Macau",
      "country": "China"
    }
  },
  {
    "name": "UFC 170: Rousey vs McMann",
    "date": "2014-02-22",
    "location": {
      "city": "Las Vegas",
      "state": "Nevada",
      "country": "USA"
    }
  },
  {
    "name": "UFC Fight Night: Machida vs Mousasi",
    "date": "2014-02-15",
    "location": {
      "city": "Jaragua do Sul",
      "state": "Santa Catarina",
      "country": "Brazil"
    }
  },
  {
    "name": "UFC 169: Barao vs Faber 2",
    "date": "2014-02-01",
    "location": {
      "city": "Newark",
      "state": "New Jersey",
      "country": "USA"
    }
  },
  {
    "name": "UFC on FOX: Henderson vs Thomson",
    "date": "2014-01-25",
    "location": {
      "city": "Chicago",
      "state": "Illinois",
      "country": "USA"
    }
  },
  {
    "name": "UFC Fight Night: Rockhold vs Philippou",
    "date": "2014-01-15",
    "location": {
      "city": "Duluth",
      "state": "Georgia",
      "country": "USA"
    }
  },
  {
    "name": "UFC Fight Night: Saffiedine vs Lim",
    "date": "2014-01-04",
    "location": {
      "city": "Singapore",
      "country": "Singapore"
    }
  },
  {
    "name": "UFC 168: Weidman vs Silva 2",
    "date": "2013-12-28",
    "location": {
      "city": "Las Vegas",
      "state": "Nevada",
      "country": "USA"
    }
  },
  {
    "name": "UFC on FOX: Johnson vs. Benavidez 2",
    "date": "2013-12-14",
    "location": {
      "city": "Sacramento",
      "state": "California",
      "country": "USA"
    }
  },
  {
    "name": "UFC Fight Night: Hunt vs Bigfoot",
    "date": "2013-12-06",
    "location": {
      "city": "Brisbane",
      "state": "Queensland",
      "country": "Australia"
    }
  },
  {
    "name": "The Ultimate Fighter: Team Rousey vs. Team Tate Finale",
    "date": "2013-11-30",
    "location": {
      "city": "Las Vegas",
      "state": "Nevada",
      "country": "USA"
    }
  },
  {
    "name": "UFC 167: St-Pierre vs Hendricks",
    "date": "2013-11-16",
    "location": {
      "city": "Las Vegas",
      "state": "Nevada",
      "country": "USA"
    }
  },
  {
    "name": "UFC Fight Night: Belfort vs Henderson 2",
    "date": "2013-11-09",
    "location": {
      "city": "Goiania",
      "state": "Goias",
      "country": "Brazil"
    }
  },
  {
    "name": "UFC Fight Night: Fight for the Troops 3",
    "date": "2013-11-06",
    "location": {
      "city": "Fort Campbell",
      "state": "Kentucky",
      "country": "USA"
    }
  },
  {
    "name": "UFC Fight Night: Machida vs Munoz",
    "date": "2013-10-26",
    "location": {
      "city": "Manchester",
      "state": "England",
      "country": "United Kingdom"
    }
  },
  {
    "name": "UFC 166: Velasquez vs Dos Santos 3",
    "date": "2013-10-19",
    "location": {
      "city": "Houston",
      "state": "Texas",
      "country": "USA"
    }
  },
  {
    "name": "UFC Fight Night: Maia vs Shields",
    "date": "2013-10-09",
    "location": {
      "city": "Barueri",
      "state": "Sao Paulo",
      "country": "Brazil"
    }
  },
  {
    "name": "UFC 165: Jones vs Gustafsson",
    "date": "2013-09-21",
    "location": {
      "city": "Toronto",
      "state": "Ontario",
      "country": "Canada"
    }
  },
  {
    "name": "UFC Fight Night: Teixeira vs Bader",
    "date": "2013-09-04",
    "location": {
      "city": "Belo Horizonte",
      "state": "Minas Gerais",
      "country": "Brazil"
    }
  },
  {
    "name": "UFC 164: Henderson vs Pettis 2",
    "date": "2013-08-31",
    "location": {
      "city": "Milwaukee",
      "state": "Wisconsin",
      "country": "USA"
    }
  },
  {
    "name": "UFC Fight Night: Condit vs Kampmann 2",
    "date": "2013-08-28",
    "location": {
      "city": "Indianapolis",
      "state": "Indiana",
      "country": "USA"
    }
  },
  {
    "name": "UFC Fight Night: Shogun vs Sonnen",
    "date": "2013-08-17",
    "location": {
      "city": "Boston",
      "state": "Massachusetts",
      "country": "USA"
    }
  },
  {
    "name": "UFC 163: Aldo vs Jung",
    "date": "2013-08-03",
    "location": {
      "city": "Rio de Janeiro",
      "country": "Brazil"
    }
  },
  {
    "name": "UFC on FOX: Johnson vs Moraga",
    "date": "2013-07-27",
    "location": {
      "city": "Seattle",
      "state": "Washington",
      "country": "USA"
    }
  },
  {
    "name": "UFC 162: Silva vs Weidman",
    "date": "2013-07-06",
    "location": {
      "city": "Las Vegas",
      "state": "Nevada",
      "country": "USA"
    }
  },
  {
    "name": "UFC 161: Evans vs Henderson",
    "date": "2013-06-15",
    "location": {
      "city": "Winnipeg",
      "state": "Manitoba",
      "country": "Canada"
    }
  },
  {
    "name": "UFC on FUEL TV: Nogueira vs. Werdum",
    "date": "2013-06-08",
    "location": {
      "city": "Fortaleza",
      "state": "Ceara",
      "country": "Brazil"
    }
  },
  {
    "name": "UFC 160: Velasquez vs Silva 2",
    "date": "2013-05-25",
    "location": {
      "city": "Las Vegas",
      "state": "Nevada",
      "country": "USA"
    }
  },
  {
    "name": "UFC on FX: Belfort vs. Rockhold",
    "date": "2013-05-18",
    "location": {
      "city": "Jaragua do Sul",
      "state": "Santa Catarina",
      "country": "Brazil"
    }
  },
  {
    "name": "UFC 159: Jones vs Sonnen",
    "date": "2013-04-27",
    "location": {
      "city": "Newark",
      "state": "New Jersey",
      "country": "USA"
    }
  },
  {
    "name": "UFC on FOX: Henderson vs Melendez",
    "date": "2013-04-20",
    "location": {
      "city": "San Jose",
      "state": "California",
      "country": "USA"
    }
  },
  {
    "name": "The Ultimate Fighter: Team Jones vs. Team Sonnen Finale",
    "date": "2013-04-13",
    "location": {
      "city": "Las Vegas",
      "state": "Nevada",
      "country": "USA"
    }
  },
  {
    "name": "UFC on FUEL TV: Mousasi vs Latifi",
    "date": "2013-04-06",
    "location": {
      "city": "Stockholm",
      "country": "Sweden"
    }
  },
  {
    "name": "UFC 158: St-Pierre vs Diaz",
    "date": "2013-03-16",
    "location": {
      "city": "Montreal",
      "state": "Quebec",
      "country": "Canada"
    }
  },
  {
    "name": "UFC on FUEL TV: Silva vs. Stann",
    "date": "2013-03-02",
    "location": {
      "city": "Saitama",
      "country": "Japan"
    }
  },
  {
    "name": "UFC 157: Rousey vs Carmouche",
    "date": "2013-02-23",
    "location": {
      "city": "Anaheim",
      "state": "California",
      "country": "USA"
    }
  },
  {
    "name": "UFC on FUEL TV: Barao vs McDonald",
    "date": "2013-02-16",
    "location": {
      "city": "London",
      "state": "England",
      "country": "United Kingdom"
    }
  },
  {
    "name": "UFC 156: Aldo vs Edgar",
    "date": "2013-02-02",
    "location": {
      "city": "Las Vegas",
      "state": "Nevada",
      "country": "USA"
    }
  },
  {
    "name": "UFC on FOX: Johnson vs Dodson",
    "date": "2013-01-26",
    "location": {
      "city": "Chicago",
      "state": "Illinois",
      "country": "USA"
    }
  },
  {
    "name": "UFC on FX: Belfort vs Bisping",
    "date": "2013-01-19",
    "location": {
      "city": "Sao Paulo",
      "country": "Brazil"
    }
  },
  {
    "name": "UFC 155: Dos Santos vs Velasquez II",
    "date": "2012-12-29",
    "location": {
      "city": "Las Vegas",
      "state": "Nevada",
      "country": "USA"
    }
  },
  {
    "name": "The Ultimate Fighter: Team Carwin vs. Team Nelson Finale",
    "date": "2012-12-15",
    "location": {
      "city": "Las Vegas",
      "state": "Nevada",
      "country": "USA"
    }
  },
  {
    "name": "UFC on FX: Sotiropoulos vs Pearson",
    "date": "2012-12-14",
    "location": {
      "city": "Gold Coast",
      "state": "Queensland",
      "country": "Australia"
    }
  },
  {
    "name": "UFC on FOX: Henderson vs Diaz",
    "date": "2012-12-08",
    "location": {
      "city": "Seattle",
      "state": "Washington",
      "country": "USA"
    }
  },
  {
    "name": "UFC 154: St-Pierre vs Condit",
    "date": "2012-11-17",
    "location": {
      "city": "Montreal",
      "state": "Quebec",
      "country": "Canada"
    }
  },
  {
    "name": "UFC Macao: Franklin vs Le",
    "date": "2012-11-10",
    "location": {
      "city": "Macau",
      "country": "China"
    }
  },
  {
    "name": "UFC 153: Silva vs Bonnar",
    "date": "2012-10-13",
    "location": {
      "city": "Rio de Janeiro",
      "country": "Brazil"
    }
  },
  {
    "name": "UFC on FX: Browne vs Bigfoot",
    "date": "2012-10-05",
    "location": {
      "city": "Minneapolis",
      "state": "Minnesota",
      "country": "USA"
    }
  },
  {
    "name": "UFC on FUEL TV: Struve vs Miocic",
    "date": "2012-09-29",
    "location": {
      "city": "Nottingham",
      "state": "England",
      "country": "United Kingdom"
    }
  },
  {
    "name": "UFC 152: Jones vs Belfort",
    "date": "2012-09-22",
    "location": {
      "city": "Toronto",
      "state": "Ontario",
      "country": "Canada"
    }
  },
  {
    "name": "UFC 150: Henderson vs Edgar II",
    "date": "2012-08-11",
    "location": {
      "city": "Denver",
      "state": "Colorado",
      "country": "USA"
    }
  },
  {
    "name": "UFC on FOX: Shogun vs Vera",
    "date": "2012-08-04",
    "location": {
      "city": "Los Angeles",
      "state": "California",
      "country": "USA"
    }
  },
  {
    "name": "UFC 149: Faber vs Barao",
    "date": "2012-07-21",
    "location": {
      "city": "Calgary",
      "state": "Alberta",
      "country": "Canada"
    }
  },
  {
    "name": "UFC on FUEL TV: Munoz vs Weidman",
    "date": "2012-07-11",
    "location": {
      "city": "San Jose",
      "state": "California",
      "country": "USA"
    }
  },
  {
    "name": "UFC 148: Silva vs Sonnen 2",
    "date": "2012-07-07",
    "location": {
      "city": "Las Vegas",
      "state": "Nevada",
      "country": "USA"
    }
  },
  {
    "name": "UFC 147: Silva vs Franklin 2",
    "date": "2012-06-23",
    "location": {
      "city": "Belo Horizonte",
      "state": "Minas Gerais",
      "country": "Brazil"
    }
  },
  {
    "name": "UFC on FX: Maynard vs Guida",
    "date": "2012-06-22",
    "location": {
      "city": "Atlantic City",
      "state": "New Jersey",
      "country": "USA"
    }
  },
  {
    "name": "UFC on FX: Johnson vs McCall",
    "date": "2012-06-08",
    "location": {
      "city": "Sunrise",
      "state": "Florida",
      "country": "USA"
    }
  },
  {
    "name": "The Ultimate Fighter: Live Finale",
    "date": "2012-06-01",
    "location": {
      "city": "Las Vegas",
      "state": "Nevada",
      "country": "USA"
    }
  },
  {
    "name": "UFC 146: Dos Santos vs Mir",
    "date": "2012-05-26",
    "location": {
      "city": "Las Vegas",
      "state": "Nevada",
      "country": "USA"
    }
  },
  {
    "name": "UFC on FUEL TV: Korean Zombie vs Poirier",
    "date": "2012-05-15",
    "location": {
      "city": "Fairfax",
      "state": "Virginia",
      "country": "USA"
    }
  },
  {
    "name": "UFC on FOX: Diaz vs Miller",
    "date": "2012-05-05",
    "location": {
      "city": "East Rutherford",
      "state": "New Jersey",
      "country": "USA"
    }
  },
  {
    "name": "UFC 145: Jones vs Evans",
    "date": "2012-04-21",
    "location": {
      "city": "Atlanta",
      "state": "Georgia",
      "country": "USA"
    }
  },
  {
    "name": "UFC on FUEL TV: Gustafsson vs Silva",
    "date": "2012-04-14",
    "location": {
      "city": "Stockholm",
      "country": "Sweden"
    }
  },
  {
    "name": "UFC on FX: Alves vs Kampmann",
    "date": "2012-03-02",
    "location": {
      "city": "Sydney",
      "state": "New South Wales",
      "country": "Australia"
    }
  },
  {
    "name": "UFC 144: Edgar vs Henderson",
    "date": "2012-02-25",
    "location": {
      "city": "Saitama",
      "country": "Japan"
    }
  },
  {
    "name": "UFC on FUEL TV: Sanchez vs Ellenberger",
    "date": "2012-02-15",
    "location": {
      "city": "Omaha",
      "state": "Nebraska",
      "country": "USA"
    }
  },
  {
    "name": "UFC 143: Diaz vs Condit",
    "date": "2012-02-04",
    "location": {
      "city": "Las Vegas",
      "state": "Nevada",
      "country": "USA"
    }
  },
  {
    "name": "UFC on FOX: Evans vs Davis",
    "date": "2012-01-28",
    "location": {
      "city": "Chicago",
      "state": "Illinois",
      "country": "USA"
    }
  },
  {
    "name": "UFC on FX: Guillard vs Miller",
    "date": "2012-01-20",
    "location": {
      "city": "Nashville",
      "state": "Tennessee",
      "country": "USA"
    }
  },
  {
    "name": "UFC 142: Aldo vs Mendes",
    "date": "2012-01-14",
    "location": {
      "city": "Rio de Janeiro",
      "country": "Brazil"
    }
  },
  {
    "name": "UFC 141: Lesnar vs Overeem",
    "date": "2011-12-30",
    "location": {
      "city": "Las Vegas",
      "state": "Nevada",
      "country": "USA"
    }
  },
  {
    "name": "UFC 140: Jones vs Machida",
    "date": "2011-12-10",
    "location": {
      "city": "Toronto",
      "state": "Ontario",
      "country": "Canada"
    }
  },
  {
    "name": "The Ultimate Fighter: Team Bisping vs Team Miller Finale",
    "date": "2011-12-03",
    "location": {
      "city": "Las Vegas",
      "state": "Nevada",
      "country": "USA"
    }
  },
  {
    "name": "UFC 139: Shogun vs Henderson",
    "date": "2011-11-19",
    "location": {
      "city": "San Jose",
      "state": "California",
      "country": "USA"
    }
  },
  {
    "name": "UFC on FOX: Velasquez vs Dos Santos",
    "date": "2011-11-12",
    "location": {
      "city": "Anaheim",
      "state": "California",
      "country": "USA"
    }
  },
  {
    "name": "UFC 138: Leben vs Munoz",
    "date": "2011-11-05",
    "location": {
      "city": "Birmingham",
      "state": "England",
      "country": "United Kingdom"
    }
  },
  {
    "name": "UFC 137: Penn vs Diaz",
    "date": "2011-10-29",
    "location": {
      "city": "Las Vegas",
      "state": "Nevada",
      "country": "USA"
    }
  },
  {
    "name": "UFC 136: Edgar vs Maynard 3",
    "date": "2011-10-08",
    "location": {
      "city": "Houston",
      "state": "Texas",
      "country": "USA"
    }
  },
  {
    "name": "UFC Live: Cruz vs Johnson",
    "date": "2011-10-01",
    "location": {
      "city": "Washington",
      "state": "DC",
      "country": "USA"
    }
  },
  {
    "name": "UFC 135: Jones vs Rampage",
    "date": "2011-09-24",
    "location": {
      "city": "Denver",
      "state": "Colorado",
      "country": "USA"
    }
  },
  {
    "name": "UFC Fight Night: Shields vs Ellenberger",
    "date": "2011-09-17",
    "location": {
      "city": "New Orleans",
      "state": "Louisiana",
      "country": "USA"
    }
  },
  {
    "name": "UFC 134: Silva vs Okami",
    "date": "2011-08-27",
    "location": {
      "city": "Rio de Janeiro",
      "country": "Brazil"
    }
  },
  {
    "name": "UFC Live: Hardy vs Lytle",
    "date": "2011-08-14",
    "location": {
      "city": "Milwaukee",
      "state": "Wisconsin",
      "country": "USA"
    }
  },
  {
    "name": "UFC 133: Evans vs Ortiz 2",
    "date": "2011-08-06",
    "location": {
      "city": "Philadelphia",
      "state": "Pennsylvania",
      "country": "USA"
    }
  },
  {
    "name": "UFC 132: Cruz vs Faber",
    "date": "2011-07-02",
    "location": {
      "city": "Las Vegas",
      "state": "Nevada",
      "country": "USA"
    }
  },
  {
    "name": "UFC Live: Kongo vs Barry",
    "date": "2011-06-26",
    "location": {
      "city": "Pittsburgh",
      "state": "Pennsylvania",
      "country": "USA"
    }
  },
  {
    "name": "UFC 131: Dos Santos vs Carwin",
    "date": "2011-06-11",
    "location": {
      "city": "Vancouver",
      "state": "British Columbia",
      "country": "Canada"
    }
  },
  {
    "name": "The Ultimate Fighter: Team Lesnar vs Team dos Santos Finale",
    "date": "2011-06-04",
    "location": {
      "city": "Las Vegas",
      "state": "Nevada",
      "country": "USA"
    }
  },
  {
    "name": "UFC 130: Rampage vs Hamill",
    "date": "2011-05-28",
    "location": {
      "city": "Las Vegas",
      "state": "Nevada",
      "country": "USA"
    }
  },
  {
    "name": "UFC 129: St-Pierre vs Shields",
    "date": "2011-04-30",
    "location": {
      "city": "Toronto",
      "state": "Ontario",
      "country": "Canada"
    }
  },
  {
    "name": "UFC Fight Night: Nogueira vs Davis",
    "date": "2011-03-26",
    "location": {
      "city": "Seattle",
      "state": "Washington",
      "country": "USA"
    }
  },
  {
    "name": "UFC 128: Shogun vs Jones",
    "date": "2011-03-19",
    "location": {
      "city": "Newark",
      "state": "New Jersey",
      "country": "USA"
    }
  },
  {
    "name": "UFC Live: Sanchez vs Kampmann",
    "date": "2011-03-03",
    "location": {
      "city": "Louisville",
      "state": "Kentucky",
      "country": "USA"
    }
  },
  {
    "name": "UFC 127: Penn vs Fitch",
    "date": "2011-02-26",
    "location": {
      "city": "Sydney",
      "state": "New South Wales",
      "country": "Australia"
    }
  },
  {
    "name": "UFC 126: Silva vs Belfort",
    "date": "2011-02-05",
    "location": {
      "city": "Las Vegas",
      "state": "Nevada",
      "country": "USA"
    }
  },
  {
    "name": "UFC Fight Night: Fight for the Troops 2",
    "date": "2011-01-22",
    "location": {
      "city": "Killeen",
      "state": "Texas",
      "country": "USA"
    }
  },
  {
    "name": "UFC 125: Resolution",
    "date": "2011-01-01",
    "location": {
      "city": "Las Vegas",
      "state": "Nevada",
      "country": "USA"
    }
  },
  {
    "name": "UFC 124: St-Pierre vs Koscheck 2",
    "date": "2010-12-11",
    "location": {
      "city": "Montreal",
      "state": "Quebec",
      "country": "Canada"
    }
  },
  {
    "name": "The Ultimate Fighter: Team GSP vs Team Koscheck Finale",
    "date": "2010-12-04",
    "location": {
      "city": "Las Vegas",
      "state": "Nevada",
      "country": "USA"
    }
  },
  {
    "name": "UFC 123: Rampage vs Machida",
    "date": "2010-11-20",
    "location": {
      "city": "Auburn Hills",
      "state": "Michigan",
      "country": "USA"
    }
  },
  {
    "name": "UFC 122: Marquardt vs Okami",
    "date": "2010-11-13",
    "location": {
      "city": "Oberhausen",
      "state": "North Rhine-Westphalia",
      "country": "Germany"
    }
  },
  {
    "name": "UFC 121: Lesnar vs Velasquez",
    "date": "2010-10-23",
    "location": {
      "city": "Anaheim",
      "state": "California",
      "country": "USA"
    }
  },
  {
    "name": "UFC 120: Bisping vs Akiyama",
    "date": "2010-10-16",
    "location": {
      "city": "London",
      "state": "England",
      "country": "United Kingdom"
    }
  },
  {
    "name": "UFC 119: Mir vs Cro Cop",
    "date": "2010-09-25",
    "location": {
      "city": "Indianapolis",
      "state": "Indiana",
      "country": "USA"
    }
  },
  {
    "name": "UFC Fight Night: Marquardt vs Palhares",
    "date": "2010-09-15",
    "location": {
      "city": "Austin",
      "state": "Texas",
      "country": "USA"
    }
  },
  {
    "name": "UFC 118: Edgar vs Penn 2",
    "date": "2010-08-28",
    "location": {
      "city": "Boston",
      "state": "Massachusetts",
      "country": "USA"
    }
  },
  {
    "name": "UFC 117: Silva vs Sonnen",
    "date": "2010-08-07",
    "location": {
      "city": "Oakland",
      "state": "California",
      "country": "USA"
    }
  },
  {
    "name": "UFC Live: Jones vs Matyushenko",
    "date": "2010-08-01",
    "location": {
      "city": "San Diego",
      "state": "California",
      "country": "USA"
    }
  },
  {
    "name": "UFC 116: Lesnar vs Carwin",
    "date": "2010-07-03",
    "location": {
      "city": "Las Vegas",
      "state": "Nevada",
      "country": "USA"
    }
  },
  {
    "name": "The Ultimate Fighter: Team Liddell vs Team Ortiz Finale",
    "date": "2010-06-19",
    "location": {
      "city": "Las Vegas",
      "state": "Nevada",
      "country": "USA"
    }
  },
  {
    "name": "UFC 115: Liddell vs Franklin",
    "date": "2010-06-12",
    "location": {
      "city": "Vancouver",
      "state": "British Columbia",
      "country": "Canada"
    }
  },
  {
    "name": "UFC 114: Rampage vs Evans",
    "date": "2010-05-29",
    "location": {
      "city": "Las Vegas",
      "state": "Nevada",
      "country": "USA"
    }
  },
  {
    "name": "UFC 113: Machida vs Shogun 2",
    "date": "2010-05-08",
    "location": {
      "city": "Montreal",
      "state": "Quebec",
      "country": "Canada"
    }
  },
  {
    "name": "UFC 112: Invincible",
    "date": "2010-04-10",
    "location": {
      "city": "Abu Dhabi",
      "country": "United Arab Emirates"
    }
  },
  {
    "name": "UFC Fight Night: Florian vs Gomi",
    "date": "2010-03-31",
    "location": {
      "city": "Charlotte",
      "state": "North Carolina",
      "country": "USA"
    }
  },
  {
    "name": "UFC 111: St-Pierre vs Hardy",
    "date": "2010-03-27",
    "location": {
      "city": "Newark",
      "state": "New Jersey",
      "country": "USA"
    }
  },
  {
    "name": "UFC Live: Vera vs Jones",
    "date": "2010-03-21",
    "location": {
      "city": "Broomfield",
      "state": "Colorado",
      "country": "USA"
    }
  },
  {
    "name": "UFC 110: Nogueira vs Velasquez",
    "date": "2010-02-20",
    "location": {
      "city": "Sydney",
      "state": "New South Wales",
      "country": "Australia"
    }
  },
  {
    "name": "UFC 109: Relentless",
    "date": "2010-02-06",
    "location": {
      "city": "Las Vegas",
      "state": "Nevada",
      "country": "USA"
    }
  },
  {
    "name": "UFC Fight Night: Maynard vs Diaz",
    "date": "2010-01-11",
    "location": {
      "city": "Fairfax",
      "state": "Virginia",
      "country": "USA"
    }
  },
  {
    "name": "UFC 108: Evans vs Silva",
    "date": "2010-01-02",
    "location": {
      "city": "Las Vegas",
      "state": "Nevada",
      "country": "USA"
    }
  },
  {
    "name": "UFC 107: Penn vs Sanchez",
    "date": "2009-12-12",
    "location": {
      "city": "Memphis",
      "state": "Tennessee",
      "country": "USA"
    }
  },
  {
    "name": "The Ultimate Fighter: Heavyweights Finale",
    "date": "2009-12-05",
    "location": {
      "city": "Las Vegas",
      "state": "Nevada",
      "country": "USA"
    }
  },
  {
    "name": "UFC 106: Ortiz vs Griffin 2",
    "date": "2009-11-21",
    "location": {
      "city": "Las Vegas",
      "state": "Nevada",
      "country": "USA"
    }
  },
  {
    "name": "UFC 105: Couture vs Vera",
    "date": "2009-11-14",
    "location": {
      "city": "Manchester",
      "state": "England",
      "country": "United Kingdom"
    }
  },
  {
    "name": "UFC 104: Machida vs Shogun",
    "date": "2009-10-24",
    "location": {
      "city": "Los Angeles",
      "state": "California",
      "country": "USA"
    }
  },
  {
    "name": "UFC 103: Franklin vs Belfort",
    "date": "2009-09-19",
    "location": {
      "city": "Dallas",
      "state": "Texas",
      "country": "USA"
    }
  },
  {
    "name": "UFC Fight Night: Diaz vs Guillard",
    "date": "2009-09-16",
    "location": {
      "city": "Oklahoma City",
      "state": "Oklahoma",
      "country": "USA"
    }
  },
  {
    "name": "UFC 102: Couture vs Nogueira",
    "date": "2009-08-29",
    "location": {
      "city": "Portland",
      "state": "Oregon",
      "country": "USA"
    }
  },
  {
    "name": "UFC 101: Declaration",
    "date": "2009-08-08",
    "location": {
      "city": "Philadelphia",
      "state": "Pennsylvania",
      "country": "USA"
    }
  },
  {
    "name": "UFC 100",
    "date": "2009-07-11",
    "location": {
      "city": "Las Vegas",
      "state": "Nevada",
      "country": "USA"
    }
  },
  {
    "name": "The Ultimate Fighter: United States vs. United Kingdom Finale",
    "date": "2009-06-20",
    "location": {
      "city": "Las Vegas",
      "state": "Nevada",
      "country": "USA"
    }
  },
  {
    "name": "UFC 99: The Comeback",
    "date": "2009-06-13",
    "location": {
      "city": "Cologne",
      "state": "North Rhine-Westphalia",
      "country": "Germany"
    }
  },
  {
    "name": "UFC 98: Evans vs Machida",
    "date": "2009-05-23",
    "location": {
      "city": "Las Vegas",
      "state": "Nevada",
      "country": "USA"
    }
  },
  {
    "name": "UFC 97: Redemption",
    "date": "2009-04-18",
    "location": {
      "city": "Montreal",
      "state": "Quebec",
      "country": "Canada"
    }
  },
  {
    "name": "UFC Fight Night: Condit vs Kampmann",
    "date": "2009-04-01",
    "location": {
      "city": "Nashville",
      "state": "Tennessee",
      "country": "USA"
    }
  },
  {
    "name": "UFC 96: Jackson vs Jardine",
    "date": "2009-03-07",
    "location": {
      "city": "Columbus",
      "state": "Ohio",
      "country": "USA"
    }
  },
  {
    "name": "UFC 95: Sanchez vs Stevenson",
    "date": "2009-02-21",
    "location": {
      "city": "London",
      "state": "England",
      "country": "United Kingdom"
    }
  },
  {
    "name": "UFC Fight Night: Lauzon vs Stephens",
    "date": "2009-02-07",
    "location": {
      "city": "Tampa",
      "state": "Florida",
      "country": "USA"
    }
  },
  {
    "name": "UFC 94: St-Pierre vs Penn 2",
    "date": "2009-01-31",
    "location": {
      "city": "Las Vegas",
      "state": "Nevada",
      "country": "USA"
    }
  },
  {
    "name": "UFC 93: Franklin vs Henderson",
    "date": "2009-01-17",
    "location": {
      "city": "Dublin",
      "state": "Leinster",
      "country": "Ireland"
    }
  },
  {
    "name": "UFC 92: The Ultimate 2008",
    "date": "2008-12-27",
    "location": {
      "city": "Las Vegas",
      "state": "Nevada",
      "country": "USA"
    }
  },
  {
    "name": "The Ultimate Fighter: Team Nogueira vs. Team Mir Finale",
    "date": "2008-12-13",
    "location": {
      "city": "Las Vegas",
      "state": "Nevada",
      "country": "USA"
    }
  },
  {
    "name": "UFC Fight Night - Fight for the Troops",
    "date": "2008-12-10",
    "location": {
      "city": "Fayetteville",
      "state": "North Carolina",
      "country": "USA"
    }
  },
  {
    "name": "UFC 91: Couture vs Lesnar",
    "date": "2008-11-15",
    "location": {
      "city": "Las Vegas",
      "state": "Nevada",
      "country": "USA"
    }
  },
  {
    "name": "UFC 90: Silva vs Cote",
    "date": "2008-10-25",
    "location": {
      "city": "Rosemont",
      "state": "Illinois",
      "country": "USA"
    }
  },
  {
    "name": "UFC 89: Bisping vs Leben",
    "date": "2008-10-18",
    "location": {
      "city": "Birmingham",
      "state": "England",
      "country": "United Kingdom"
    }
  },
  {
    "name": "UFC Fight Night: Diaz vs Neer",
    "date": "2008-09-17",
    "location": {
      "city": "Omaha",
      "state": "Nebraska",
      "country": "USA"
    }
  },
  {
    "name": "UFC 88: Breakthrough",
    "date": "2008-09-06",
    "location": {
      "city": "Atlanta",
      "state": "Georgia",
      "country": "USA"
    }
  },
  {
    "name": "UFC 87: Seek And Destroy",
    "date": "2008-08-09",
    "location": {
      "city": "Minneapolis",
      "state": "Minnesota",
      "country": "USA"
    }
  },
  {
    "name": "UFC: Silva vs Irvin",
    "date": "2008-07-19",
    "location": {
      "city": "Las Vegas",
      "state": "Nevada",
      "country": "USA"
    }
  },
  {
    "name": "UFC 86: Jackson vs Griffin",
    "date": "2008-07-05",
    "location": {
      "city": "Las Vegas",
      "state": "Nevada",
      "country": "USA"
    }
  },
  {
    "name": "The Ultimate Fighter: Team Rampage vs Team Forrest Finale",
    "date": "2008-06-21",
    "location": {
      "city": "Las Vegas",
      "state": "Nevada",
      "country": "USA"
    }
  },
  {
    "name": "UFC 85: Bedlam",
    "date": "2008-06-07",
    "location": {
      "city": "London",
      "state": "England",
      "country": "United Kingdom"
    }
  },
  {
    "name": "UFC 84: Ill Will",
    "date": "2008-05-24",
    "location": {
      "city": "Las Vegas",
      "state": "Nevada",
      "country": "USA"
    }
  },
  {
    "name": "UFC 83: Serra vs St-Pierre 2",
    "date": "2008-04-19",
    "location": {
      "city": "Montreal",
      "state": "Quebec",
      "country": "Canada"
    }
  },
  {
    "name": "UFC Fight Night: Florian vs Lauzon",
    "date": "2008-04-02",
    "location": {
      "city": "Broomfield",
      "state": "Colorado",
      "country": "USA"
    }
  },
  {
    "name": "UFC 82: Pride of a Champion",
    "date": "2008-03-01",
    "location": {
      "city": "Columbus",
      "state": "Ohio",
      "country": "USA"
    }
  },
  {
    "name": "UFC 81: Breaking Point",
    "date": "2008-02-02",
    "location": {
      "city": "Las Vegas",
      "state": "Nevada",
      "country": "USA"
    }
  },
  {
    "name": "UFC Fight Night: Swick vs Burkman",
    "date": "2008-01-23",
    "location": {
      "city": "Las Vegas",
      "state": "Nevada",
      "country": "USA"
    }
  },
  {
    "name": "UFC 80: Rapid Fire",
    "date": "2008-01-19",
    "location": {
      "city": "Newcastle",
      "state": "England",
      "country": "United Kingdom"
    }
  },
  {
    "name": "UFC 79: Nemesis",
    "date": "2007-12-29",
    "location": {
      "city": "Las Vegas",
      "state": "Nevada",
      "country": "USA"
    }
  },
  {
    "name": "The Ultimate Fighter: Team Hughes vs. Team Serra Finale",
    "date": "2007-12-08",
    "location": {
      "city": "Las Vegas",
      "state": "Nevada",
      "country": "USA"
    }
  },
  {
    "name": "UFC 78: Validation",
    "date": "2007-11-17",
    "location": {
      "city": "Newark",
      "state": "New Jersey",
      "country": "USA"
    }
  },
  {
    "name": "UFC 77: Hostile Territory",
    "date": "2007-10-20",
    "location": {
      "city": "Cincinnati",
      "state": "Ohio",
      "country": "USA"
    }
  },
  {
    "name": "UFC 76: Knockout",
    "date": "2007-09-22",
    "location": {
      "city": "Anaheim",
      "state": "California",
      "country": "USA"
    }
  },
  {
    "name": "UFC Fight Night: Thomas vs Florian",
    "date": "2007-09-19",
    "location": {
      "city": "Las Vegas",
      "state": "Nevada",
      "country": "USA"
    }
  },
  {
    "name": "UFC 75: Champion vs Champion",
    "date": "2007-09-08",
    "location": {
      "city": "London",
      "state": "England",
      "country": "United Kingdom"
    }
  },
  {
    "name": "UFC 74: Respect",
    "date": "2007-08-25",
    "location": {
      "city": "Las Vegas",
      "state": "Nevada",
      "country": "USA"
    }
  },
  {
    "name": "UFC 73: Stacked",
    "date": "2007-07-07",
    "location": {
      "city": "Sacramento",
      "state": "California",
      "country": "USA"
    }
  },
  {
    "name": "The Ultimate Fighter: Team Pulver vs. Team Penn Finale",
    "date": "2007-06-23",
    "location": {
      "city": "Las Vegas",
      "state": "Nevada",
      "country": "USA"
    }
  },
  {
    "name": "UFC 72: Victory",
    "date": "2007-06-16",
    "location": {
      "city": "Belfast",
      "state": "Northern Ireland",
      "country": "United Kingdom"
    }
  },
  {
    "name": "UFC Fight Night: Stout vs Fisher",
    "date": "2007-06-12",
    "location": {
      "city": "Hollywood",
      "state": "Florida",
      "country": "USA"
    }
  },
  {
    "name": "UFC 71: Liddell vs Jackson",
    "date": "2007-05-26",
    "location": {
      "city": "Las Vegas",
      "state": "Nevada",
      "country": "USA"
    }
  },
  {
    "name": "UFC 70: Nations Collide",
    "date": "2007-04-21",
    "location": {
      "city": "Manchester",
      "state": "England",
      "country": "United Kingdom"
    }
  },
  {
    "name": "UFC 69: Shootout",
    "date": "2007-04-07",
    "location": {
      "city": "Houston",
      "state": "Texas",
      "country": "USA"
    }
  },
  {
    "name": "UFC Fight Night: Stevenson vs Guillard",
    "date": "2007-04-05",
    "location": {
      "city": "Las Vegas",
      "state": "Nevada",
      "country": "USA"
    }
  },
  {
    "name": "UFC 68: The Uprising",
    "date": "2007-03-03",
    "location": {
      "city": "Columbus",
      "state": "Ohio",
      "country": "USA"
    }
  },
  {
    "name": "UFC 67: All or Nothing",
    "date": "2007-02-03",
    "location": {
      "city": "Las Vegas",
      "state": "Nevada",
      "country": "USA"
    }
  },
  {
    "name": "UFC Fight Night: Evans vs Salmon",
    "date": "2007-01-25",
    "location": {
      "city": "Hollywood",
      "state": "Florida",
      "country": "USA"
    }
  },
  {
    "name": "UFC 66: Liddell vs Ortiz 2",
    "date": "2006-12-30",
    "location": {
      "city": "Las Vegas",
      "state": "Nevada",
      "country": "USA"
    }
  },
  {
    "name": "UFC Fight Night: Sanchez vs Riggs",
    "date": "2006-12-13",
    "location": {
      "city": "San Diego",
      "state": "California",
      "country": "USA"
    }
  },
  {
    "name": "UFC 65: Bad Intentions",
    "date": "2006-11-18",
    "location": {
      "city": "Sacramento",
      "state": "California",
      "country": "USA"
    }
  },
  {
    "name": "The Ultimate Fighter: The Comeback Finale",
    "date": "2006-11-11",
    "location": {
      "city": "Las Vegas",
      "state": "Nevada",
      "country": "USA"
    }
  },
  {
    "name": "UFC 64: Unstoppable",
    "date": "2006-10-14",
    "location": {
      "city": "Las Vegas",
      "state": "Nevada",
      "country": "USA"
    }
  },
  {
    "name": "Ortiz vs Shamrock 3: The Final Chapter",
    "date": "2006-10-10",
    "location": {
      "city": "Hollywood",
      "state": "Florida",
      "country": "USA"
    }
  },
  {
    "name": "UFC 63: Hughes vs Penn",
    "date": "2006-09-23",
    "location": {
      "city": "Anaheim",
      "state": "California",
      "country": "USA"
    }
  },
  {
    "name": "UFC 62: Liddell vs Sobral",
    "date": "2006-08-26",
    "location": {
      "city": "Las Vegas",
      "state": "Nevada",
      "country": "USA"
    }
  },
  {
    "name": "UFC Fight Night 6",
    "date": "2006-08-17",
    "location": {
      "city": "Las Vegas",
      "state": "Nevada",
      "country": "USA"
    }
  },
  {
    "name": "UFC 61: Bitter Rivals",
    "date": "2006-07-08",
    "location": {
      "city": "Las Vegas",
      "state": "Nevada",
      "country": "USA"
    }
  },
  {
    "name": "UFC Fight Night 5",
    "date": "2006-06-28",
    "location": {
      "city": "Las Vegas",
      "state": "Nevada",
      "country": "USA"
    }
  },
  {
    "name": "The Ultimate Fighter: Team Ortiz vs. Team Shamrock Finale",
    "date": "2006-06-24",
    "location": {
      "city": "Las Vegas",
      "state": "Nevada",
      "country": "USA"
    }
  },
  {
    "name": "UFC 60: Hughes vs Gracie",
    "date": "2006-05-27",
    "location": {
      "city": "Los Angeles",
      "state": "California",
      "country": "USA"
    }
  },
  {
    "name": "UFC 59: Reality Check",
    "date": "2006-04-15",
    "location": {
      "city": "Anaheim",
      "state": "California",
      "country": "USA"
    }
  },
  {
    "name": "UFC Fight Night 4",
    "date": "2006-04-06",
    "location": {
      "city": "Las Vegas",
      "state": "Nevada",
      "country": "USA"
    }
  },
  {
    "name": "UFC 58: USA vs Canada",
    "date": "2006-03-04",
    "location": {
      "city": "Las Vegas",
      "state": "Nevada",
      "country": "USA"
    }
  },
  {
    "name": "UFC 57: Liddell vs Couture 3",
    "date": "2006-02-04",
    "location": {
      "city": "Las Vegas",
      "state": "Nevada",
      "country": "USA"
    }
  },
  {
    "name": "UFC Fight Night 3",
    "date": "2006-01-16",
    "location": {
      "city": "Las Vegas",
      "state": "Nevada",
      "country": "USA"
    }
  },
  {
    "name": "UFC 56: Full Force",
    "date": "2005-11-19",
    "location": {
      "city": "Las Vegas",
      "state": "Nevada",
      "country": "USA"
    }
  },
  {
    "name": "The Ultimate Fighter: Team Hughes vs. Team Franklin Finale",
    "date": "2005-11-05",
    "location": {
      "city": "Las Vegas",
      "state": "Nevada",
      "country": "USA"
    }
  },
  {
    "name": "UFC 55: Fury",
    "date": "2005-10-07",
    "location": {
      "city": "Uncasville",
      "state": "Connecticut",
      "country": "USA"
    }
  },
  {
    "name": "UFC Fight Night 2",
    "date": "2005-10-03",
    "location": {
      "city": "Las Vegas",
      "state": "Nevada",
      "country": "USA"
    }
  },
  {
    "name": "UFC 54: Boiling Point",
    "date": "2005-08-20",
    "location": {
      "city": "Las Vegas",
      "state": "Nevada",
      "country": "USA"
    }
  },
  {
    "name": "UFC Fight Night 1",
    "date": "2005-08-06",
    "location": {
      "city": "Las Vegas",
      "state": "Nevada",
      "country": "USA"
    }
  },
  {
    "name": "UFC 53: Heavy Hitters",
    "date": "2005-06-04",
    "location": {
      "city": "Atlantic City",
      "state": "New Jersey",
      "country": "USA"
    }
  },
  {
    "name": "UFC 52: Couture vs Liddell 2",
    "date": "2005-04-16",
    "location": {
      "city": "Las Vegas",
      "state": "Nevada",
      "country": "USA"
    }
  },
  {
    "name": "The Ultimate Fighter: Team Couture vs. Team Liddell Finale",
    "date": "2005-04-09",
    "location": {
      "city": "Las Vegas",
      "state": "Nevada",
      "country": "USA"
    }
  },
  {
    "name": "UFC 51: Super Saturday",
    "date": "2005-02-05",
    "location": {
      "city": "Las Vegas",
      "state": "Nevada",
      "country": "USA"
    }
  },
  {
    "name": "UFC 50: The War Of '04",
    "date": "2004-10-22",
    "location": {
      "city": "Atlantic City",
      "state": "New Jersey",
      "country": "USA"
    }
  },
  {
    "name": "UFC 49: Unfinished Business",
    "date": "2004-08-21",
    "location": {
      "city": "Las Vegas",
      "state": "Nevada",
      "country": "USA"
    }
  },
  {
    "name": "UFC 48: Payback",
    "date": "2004-06-19",
    "location": {
      "city": "Las Vegas",
      "state": "Nevada",
      "country": "USA"
    }
  },
  {
    "name": "UFC 47: It's On!",
    "date": "2004-04-02",
    "location": {
      "city": "Las Vegas",
      "state": "Nevada",
      "country": "USA"
    }
  },
  {
    "name": "UFC 46: Supernatural",
    "date": "2004-01-31",
    "location": {
      "city": "Las Vegas",
      "state": "Nevada",
      "country": "USA"
    }
  },
  {
    "name": "UFC 45: Revolution",
    "date": "2003-11-21",
    "location": {
      "city": "Uncasville",
      "state": "Connecticut",
      "country": "USA"
    }
  },
  {
    "name": "UFC 44: Undisputed",
    "date": "2003-09-26",
    "location": {
      "city": "Las Vegas",
      "state": "Nevada",
      "country": "USA"
    }
  },
  {
    "name": "UFC 43: Meltdown",
    "date": "2003-06-06",
    "location": {
      "city": "Las Vegas",
      "state": "Nevada",
      "country": "USA"
    }
  },
  {
    "name": "UFC 42: Sudden Impact",
    "date": "2003-04-25",
    "location": {
      "city": "Miami",
      "state": "Florida",
      "country": "USA"
    }
  },
  {
    "name": "UFC 41: Onslaught",
    "date": "2003-02-28",
    "location": {
      "city": "Atlantic City",
      "state": "New Jersey",
      "country": "USA"
    }
  },
  {
    "name": "UFC 40: Vendetta",
    "date": "2002-11-22",
    "location": {
      "city": "Las Vegas",
      "state": "Nevada",
      "country": "USA"
    }
  },
  {
    "name": "UFC 39: The Warriors Return",
    "date": "2002-09-27",
    "location": {
      "city": "Uncasville",
      "state": "Connecticut",
      "country": "USA"
    }
  },
  {
    "name": "UFC 38: Brawl at the Hall",
    "date": "2002-07-13",
    "location": {
      "city": "London",
      "state": "England",
      "country": "United Kingdom"
    }
  },
  {
    "name": "UFC 37.5: As Real As It Gets",
    "date": "2002-06-22",
    "location": {
      "city": "Las Vegas",
      "state": "Nevada",
      "country": "USA"
    }
  },
  {
    "name": "UFC 37: High Impact",
    "date": "2002-05-10",
    "location": {
      "city": "Bossier City",
      "state": "Louisiana",
      "country": "USA"
    }
  },
  {
    "name": "UFC 36: Worlds Collide",
    "date": "2002-03-22",
    "location": {
      "city": "Las Vegas",
      "state": "Nevada",
      "country": "USA"
    }
  },
  {
    "name": "UFC 35: Throwdown",
    "date": "2002-01-11",
    "location": {
      "city": "Uncasville",
      "state": "Connecticut",
      "country": "USA"
    }
  },
  {
    "name": "UFC 34: High Voltage",
    "date": "2001-11-02",
    "location": {
      "city": "Las Vegas",
      "state": "Nevada",
      "country": "USA"
    }
  },
  {
    "name": "UFC 33: Victory in Vegas",
    "date": "2001-09-28",
    "location": {
      "city": "Las Vegas",
      "state": "Nevada",
      "country": "USA"
    }
  },
  {
    "name": "UFC 32: Showdown in the Meadowlands",
    "date": "2001-06-29",
    "location": {
      "city": "East Rutherford",
      "state": "New Jersey",
      "country": "USA"
    }
  },
  {
    "name": "UFC 31: Locked and Loaded",
    "date": "2001-05-04",
    "location": {
      "city": "Atlantic City",
      "state": "New Jersey",
      "country": "USA"
    }
  },
  {
    "name": "UFC 30: Battle on the Boardwalk",
    "date": "2001-02-23",
    "location": {
      "city": "Atlantic City",
      "state": "New Jersey",
      "country": "USA"
    }
  },
  {
    "name": "UFC 29: Defense of the Belts",
    "date": "2000-12-16",
    "location": {
      "city": "Tokyo",
      "country": "Japan"
    }
  },
  {
    "name": "UFC 28: High Stakes",
    "date": "2000-11-17",
    "location": {
      "city": "Atlantic City",
      "state": "New Jersey",
      "country": "USA"
    }
  },
  {
    "name": "UFC 27: Ultimate Bad Boyz",
    "date": "2000-09-22",
    "location": {
      "city": "New Orleans",
      "state": "Louisiana",
      "country": "USA"
    }
  },
  {
    "name": "UFC 26: Ultimate Field Of Dreams",
    "date": "2000-06-09",
    "location": {
      "city": "Cedar Rapids",
      "state": "Iowa",
      "country": "USA"
    }
  },
  {
    "name": "UFC 25: Ultimate Japan 3",
    "date": "2000-04-14",
    "location": {
      "city": "Tokyo",
      "country": "Japan"
    }
  },
  {
    "name": "UFC 24: First Defense",
    "date": "2000-03-10",
    "location": {
      "city": "Lake Charles",
      "state": "Louisiana",
      "country": "USA"
    }
  },
  {
    "name": "UFC 23: Ultimate Japan 2",
    "date": "1999-11-19",
    "location": {
      "city": "Chiba",
      "country": "Japan"
    }
  },
  {
    "name": "UFC 22: Only One Can be Champion",
    "date": "1999-09-24",
    "location": {
      "city": "Lake Charles",
      "state": "Louisiana",
      "country": "USA"
    }
  },
  {
    "name": "UFC 21: Return of the Champions",
    "date": "1999-07-16",
    "location": {
      "city": "Cedar Rapids",
      "state": "Iowa",
      "country": "USA"
    }
  },
  {
    "name": "UFC 20: Battle for the Gold",
    "date": "1999-05-07",
    "location": {
      "city": "Birmingham",
      "state": "Alabama",
      "country": "USA"
    }
  },
  {
    "name": "UFC 19: Ultimate Young Guns",
    "date": "1999-03-05",
    "location": {
      "city": "Bay St. Louis",
      "state": "Mississippi",
      "country": "USA"
    }
  },
  {
    "name": "UFC 18: The Road to the Heavyweight Title",
    "date": "1999-01-08",
    "location": {
      "city": "New Orleans",
      "state": "Louisiana",
      "country": "USA"
    }
  },
  {
    "name": "UFC - Ultimate Brazil",
    "date": "1998-10-16",
    "location": {
      "city": "Sao Paulo",
      "country": "Brazil"
    }
  },
  {
    "name": "UFC 17: Redemption",
    "date": "1998-05-15",
    "location": {
      "city": "Mobile",
      "state": "Alabama",
      "country": "USA"
    }
  },
  {
    "name": "UFC 16: Battle in the Bayou",
    "date": "1998-03-13",
    "location": {
      "city": "New Orleans",
      "state": "Louisiana",
      "country": "USA"
    }
  },
  {
    "name": "UFC - Ultimate Japan",
    "date": "1997-12-21",
    "location": {
      "city": "Yokohama",
      "state": "Kanagawa",
      "country": "Japan"
    }
  },
  {
    "name": "UFC 15: Collision Course",
    "date": "1997-10-17",
    "location": {
      "city": "Bay St. Louis",
      "state": "Mississippi",
      "country": "USA"
    }
  },
  {
    "name": "UFC 14: Showdown",
    "date": "1997-07-27",
    "location": {
      "city": "Birmingham",
      "state": "Alabama",
      "country": "USA"
    }
  },
  {
    "name": "UFC 13: The Ultimate Force",
    "date": "1997-05-30",
    "location": {
      "city": "Augusta",
      "state": "Georgia",
      "country": "USA"
    }
  },
  {
    "name": "UFC 12: Judgement Day",
    "date": "1997-02-07",
    "location": {
      "city": "Dothan",
      "state": "Alabama",
      "country": "USA"
    }
  },
  {
    "name": "UFC - Ultimate Ultimate '96",
    "date": "1996-12-07",
    "location": {
      "city": "Birmingham",
      "state": "Alabama",
      "country": "USA"
    }
  },
  {
    "name": "UFC 11: The Proving Ground",
    "date": "1996-09-20",
    "location": {
      "city": "Augusta",
      "state": "Georgia",
      "country": "USA"
    }
  },
  {
    "name": "UFC 10: The Tournament",
    "date": "1996-07-12",
    "location": {
      "city": "Birmingham",
      "state": "Alabama",
      "country": "USA"
    }
  },
  {
    "name": "UFC 9: Motor City Madness",
    "date": "1996-05-17",
    "location": {
      "city": "Detroit",
      "state": "Michigan",
      "country": "USA"
    }
  },
  {
    "name": "UFC 8: David vs Goliath",
    "date": "1996-02-16",
    "location": {
      "city": "San Juan",
      "country": "Puerto Rico"
    }
  },
  {
    "name": "UFC - Ultimate Ultimate '95",
    "date": "1995-12-16",
    "location": {
      "city": "Denver",
      "state": "Colorado",
      "country": "USA"
    }
  },
  {
    "name": "UFC 7: The Brawl in Buffalo",
    "date": "1995-09-08",
    "location": {
      "city": "Buffalo",
      "state": "New York",
      "country": "USA"
    }
  },
  {
    "name": "UFC 6: Clash of the Titans",
    "date": "1995-07-14",
    "location": {
      "city": "Casper",
      "state": "Wyoming",
      "country": "USA"
    }
  },
  {
    "name": "UFC 5: The Return of the Beast",
    "date": "1995-04-07",
    "location": {
      "city": "Charlotte",
      "state": "North Carolina",
      "country": "USA"
    }
  },
  {
    "name": "UFC 4: Revenge of the Warriors",
    "date": "1994-12-16",
    "location": {
      "city": "Tulsa",
      "state": "Oklahoma",
      "country": "USA"
    }
  },
  {
    "name": "UFC 3: The American Dream",
    "date": "1994-09-09",
    "location": {
      "city": "Charlotte",
      "state": "North Carolina",
      "country": "USA"
    }
  },
  {
    "name": "UFC 2: No Way Out",
    "date": "1994-03-11",
    "location": {
      "city": "Denver",
      "state": "Colorado",
      "country": "USA"
    }
  }
]